{"1024305": {"HT_HOTEL_ID": 1024305, "HT_LONGITUDE": 24.749593, "HT_LATITUDE": 42.144821, "HT_TRIP_ADVISOR_SCORE": 3.0, "SRML_STAR_RATING": 3.0, "HOTEL_NAME": "Star Hotel"}, "1024374": {"HT_HOTEL_ID": 1024374, "HT_LONGITUDE": 137.370171, "HT_LATITUDE": 34.826786, "HT_TRIP_ADVISOR_SCORE": 4.0, "SRML_STAR_RATING": 2.0, "HOTEL_NAME": "Comfort Hotel Toyokawa"}, "1024648": {"HT_HOTEL_ID": 1024648, "HT_LONGITUDE": 175.645224, "HT_LATITUDE": -36.731898, "HT_TRIP_ADVISOR_SCORE": 5.0, "SRML_STAR_RATING": 3.0, "HOTEL_NAME": "Harbour Drive B&B Matarangi"}, "1024192": {"HT_HOTEL_ID": 1024192, "HT_LONGITUDE": -109.897554, "HT_LATITUDE": 22.894665, "HT_TRIP_ADVISOR_SCORE": 4.5, "SRML_STAR_RATING": 5.0, "HOTEL_NAME": "Villa Del Arco Beach Resort & Spa"}, "1000027": {"HT_HOTEL_ID": 1000027, "HT_LONGITUDE": 100.888424, "HT_LATITUDE": 12.941185, "HT_TRIP_ADVISOR_SCORE": 3.5, "SRML_STAR_RATING": 4.0, "HOTEL_NAME": "Centara Pattaya"}, "1000114": {"HT_HOTEL_ID": 1000114, "HT_LONGITUDE": 13.134864, "HT_LATITUDE": 47.114403, "HT_TRIP_ADVISOR_SCORE": 4.0, "SRML_STAR_RATING": 4.0, "HOTEL_NAME": "Hotel Elisabethpark ****"}, "1000096": {"HT_HOTEL_ID": 1000096, "HT_LONGITUDE": 100.881807, "HT_LATITUDE": 12.885575, "HT_TRIP_ADVISOR_SCORE": 3.5, "SRML_STAR_RATING": 3.0, "HOTEL_NAME": "Hotel Welcome Jomtien Beach."}, "1000076": {"HT_HOTEL_ID": 1000076, "HT_LONGITUDE": -7.987045, "HT_LATITUDE": 31.617937, "HT_TRIP_ADVISOR_SCORE": 4.5, "SRML_STAR_RATING": 3.0, "HOTEL_NAME": "Riad El Farah"}, "1000099": {"HT_HOTEL_ID": 1000099, "HT_LONGITUDE": -90.07196, "HT_LATITUDE": 38.744986, "HT_TRIP_ADVISOR_SCORE": 3.5, "SRML_STAR_RATING": 3.0, "HOTEL_NAME": "La Quinta Inn & Suites Pontoon Beach"}, "1000118": {"HT_HOTEL_ID": 1000118, "HT_LONGITUDE": 0.836524, "HT_LATITUDE": 45.894982, "HT_TRIP_ADVISOR_SCORE": 3.5, "SRML_STAR_RATING": 3.0, "HOTEL_NAME": "Golf De Saint-Junien"}, "1000103": {"HT_HOTEL_ID": 1000103, "HT_LONGITUDE": 55.784878, "HT_LATITUDE": 24.207247, "HT_TRIP_ADVISOR_SCORE": 4.0, "SRML_STAR_RATING": 4.0, "HOTEL_NAME": "Hilton Al Ain"}, "1000107": {"HT_HOTEL_ID": 1000107, "HT_LONGITUDE": -82.046919, "HT_LATITUDE": 39.949612, "HT_TRIP_ADVISOR_SCORE": 3.5, "SRML_STAR_RATING": 2.0, "HOTEL_NAME": "Super 8 Zanesville"}, "1000089": {"HT_HOTEL_ID": 1000089, "HT_LONGITUDE": 100.498536, "HT_LATITUDE": 13.758557, "HT_TRIP_ADVISOR_SCORE": 4.0, "SRML_STAR_RATING": 3.0, "HOTEL_NAME": "Buddy Lodge Hotel"}, "1000046": {"HT_HOTEL_ID": 1000046, "HT_LONGITUDE": 100.614392, "HT_LATITUDE": 13.668966, "HT_TRIP_ADVISOR_SCORE": 4.0, "SRML_STAR_RATING": 3.0, "HOTEL_NAME": "Thomson Residence Hotel Residence."}, "1000190": {"HT_HOTEL_ID": 1000190, "HT_LONGITUDE": -93.266044, "HT_LATITUDE": 36.652679, "HT_TRIP_ADVISOR_SCORE": 4.0, "SRML_STAR_RATING": 3.0, "HOTEL_NAME": "Woods Resort"}, "1000194": {"HT_HOTEL_ID": 1000194, "HT_LONGITUDE": -2.18486, "HT_LATITUDE": 57.199786, "HT_TRIP_ADVISOR_SCORE": 4.0, "SRML_STAR_RATING": 4.0, "HOTEL_NAME": "Aberdeen Marriott Hotel"}, "1000199": {"HT_HOTEL_ID": 1000199, "HT_LONGITUDE": 24.717197, "HT_LATITUDE": 48.91776, "HT_TRIP_ADVISOR_SCORE": 4.5, "SRML_STAR_RATING": 3.0, "HOTEL_NAME": "Nadiya"}, "1000156": {"HT_HOTEL_ID": 1000156, "HT_LONGITUDE": 11.873322, "HT_LATITUDE": 47.188637, "HT_TRIP_ADVISOR_SCORE": 4.0, "SRML_STAR_RATING": 3.0, "HOTEL_NAME": "Hotel Restaurant Eckartauerhof"}, "1000182": {"HT_HOTEL_ID": 1000182, "HT_LONGITUDE": 39.21718, "HT_LATITUDE": -6.078427, "HT_TRIP_ADVISOR_SCORE": 4.5, "SRML_STAR_RATING": 3.0, "HOTEL_NAME": "Chuini Zanzibar Beach Lodge"}, "1000119": {"HT_HOTEL_ID": 1000119, "HT_LONGITUDE": 121.0016, "HT_LATITUDE": 14.537876, "HT_TRIP_ADVISOR_SCORE": 4.0, "SRML_STAR_RATING": 3.0, "HOTEL_NAME": "Kabayan Hotel Pasay"}, "1000231": {"HT_HOTEL_ID": 1000231, "HT_LONGITUDE": -6.847476, "HT_LATITUDE": 34.005797, "HT_TRIP_ADVISOR_SCORE": 3.0, "SRML_STAR_RATING": 4.0, "HOTEL_NAME": "Ourida Hotel"}, "1000237": {"HT_HOTEL_ID": 1000237, "HT_LONGITUDE": -13.623648, "HT_LATITUDE": 28.930892, "HT_TRIP_ADVISOR_SCORE": 4.0, "SRML_STAR_RATING": 4.0, "HOTEL_NAME": "Sol Lanzarote"}, "1000207": {"HT_HOTEL_ID": 1000207, "HT_LONGITUDE": -99.971702, "HT_LATITUDE": 16.901019, "HT_TRIP_ADVISOR_SCORE": 4.0, "SRML_STAR_RATING": 4.0, "HOTEL_NAME": "Hotel Baxar"}, "1000308": {"HT_HOTEL_ID": 1000308, "HT_LONGITUDE": 103.842967, "HT_LATITUDE": 22.333146, "HT_TRIP_ADVISOR_SCORE": 4.5, "SRML_STAR_RATING": 3.0, "HOTEL_NAME": "Sapa Central Hotel"}, "1000319": {"HT_HOTEL_ID": 1000319, "HT_LONGITUDE": -13.654267, "HT_LATITUDE": 28.922846, "HT_TRIP_ADVISOR_SCORE": 4.0, "SRML_STAR_RATING": 2.0, "HOTEL_NAME": "Apartamentos Plaza Azul"}, "1000344": {"HT_HOTEL_ID": 1000344, "HT_LONGITUDE": -74.427714, "HT_LATITUDE": 39.360078, "HT_TRIP_ADVISOR_SCORE": 3.5, "SRML_STAR_RATING": 3.0, "HOTEL_NAME": "Best Western Envoy Inn"}, "1000321": {"HT_HOTEL_ID": 1000321, "HT_LONGITUDE": -82.702962, "HT_LATITUDE": 27.477326, "HT_TRIP_ADVISOR_SCORE": 4.5, "SRML_STAR_RATING": 4.0, "HOTEL_NAME": "Tropic Isle Beach Resort"}, "1000325": {"HT_HOTEL_ID": 1000325, "HT_LONGITUDE": -13.85207, "HT_LATITUDE": 28.863456, "HT_TRIP_ADVISOR_SCORE": 4.5, "SRML_STAR_RATING": 3.0, "HOTEL_NAME": "Palmeras Garden"}, "1000452": {"HT_HOTEL_ID": 1000452, "HT_LONGITUDE": -85.094232, "HT_LATITUDE": 10.427263, "HT_TRIP_ADVISOR_SCORE": 3.5, "SRML_STAR_RATING": 3.0, "HOTEL_NAME": "Hotel Cana Brava Inn"}, "1000427": {"HT_HOTEL_ID": 1000427, "HT_LONGITUDE": -4.622277, "HT_LATITUDE": 50.697365, "HT_TRIP_ADVISOR_SCORE": 5.0, "SRML_STAR_RATING": 3.0, "HOTEL_NAME": "Cornish Valley View B&B"}, "1000461": {"HT_HOTEL_ID": 1000461, "HT_LONGITUDE": -9.605377, "HT_LATITUDE": 30.422155, "HT_TRIP_ADVISOR_SCORE": 4.0, "SRML_STAR_RATING": 3.0, "HOTEL_NAME": "Suite Hotel Tilila"}, "1000420": {"HT_HOTEL_ID": 1000420, "HT_LONGITUDE": 34.008099, "HT_LATITUDE": 34.985152, "HT_TRIP_ADVISOR_SCORE": 4.0, "SRML_STAR_RATING": 5.0, "HOTEL_NAME": "Grecian Bay Hotel"}, "1000470": {"HT_HOTEL_ID": 1000470, "HT_LONGITUDE": 173.003418, "HT_LATITUDE": -40.994482, "HT_TRIP_ADVISOR_SCORE": 4.5, "SRML_STAR_RATING": 2.0, "HOTEL_NAME": "The Barn Backpackers"}, "1000397": {"HT_HOTEL_ID": 1000397, "HT_LONGITUDE": 33.986482, "HT_LATITUDE": 34.986462, "HT_TRIP_ADVISOR_SCORE": 4.0, "SRML_STAR_RATING": 4.0, "HOTEL_NAME": "Panas Holiday Village"}, "1000544": {"HT_HOTEL_ID": 1000544, "HT_LONGITUDE": 1.667159, "HT_LATITUDE": 42.576951, "HT_TRIP_ADVISOR_SCORE": 4.0, "SRML_STAR_RATING": 4.0, "HOTEL_NAME": "Hotel Himalaia Soldeu"}, "1000571": {"HT_HOTEL_ID": 1000571, "HT_LONGITUDE": -0.072165, "HT_LATITUDE": 47.261904, "HT_TRIP_ADVISOR_SCORE": 4.0, "SRML_STAR_RATING": 4.0, "HOTEL_NAME": "Hotel Mercure Bords De Loire Saumur"}, "1000574": {"HT_HOTEL_ID": 1000574, "HT_LONGITUDE": 32.865851, "HT_LATITUDE": 39.898888, "HT_TRIP_ADVISOR_SCORE": 4.0, "SRML_STAR_RATING": 1.0, "HOTEL_NAME": "Golden Boutique Hotel"}, "1000581": {"HT_HOTEL_ID": 1000581, "HT_LONGITUDE": 32.844874, "HT_LATITUDE": 39.930385, "HT_TRIP_ADVISOR_SCORE": 3.0, "SRML_STAR_RATING": 5.0, "HOTEL_NAME": "I\u00e7kale Otel Ankara"}, "1000541": {"HT_HOTEL_ID": 1000541, "HT_LONGITUDE": -104.957338, "HT_LATITUDE": 39.720378, "HT_TRIP_ADVISOR_SCORE": 4.5, "SRML_STAR_RATING": 4.0, "HOTEL_NAME": "Halcyon, A Hotel In Cherry Creek"}, "1000543": {"HT_HOTEL_ID": 1000543, "HT_LONGITUDE": 1.482237, "HT_LATITUDE": 42.574005, "HT_TRIP_ADVISOR_SCORE": 4.0, "SRML_STAR_RATING": 4.0, "HOTEL_NAME": "Hotel Spa Princesa Parc Andorra"}, "1000567": {"HT_HOTEL_ID": 1000567, "HT_LONGITUDE": 1.483957, "HT_LATITUDE": 42.571931, "HT_TRIP_ADVISOR_SCORE": 3.5, "SRML_STAR_RATING": 3.0, "HOTEL_NAME": "Hotel Comapedrosa"}, "1000635": {"HT_HOTEL_ID": 1000635, "HT_LONGITUDE": -0.375074, "HT_LATITUDE": 42.522282, "HT_TRIP_ADVISOR_SCORE": 3.0, "SRML_STAR_RATING": 3.0, "HOTEL_NAME": "La Pardina"}, "1000660": {"HT_HOTEL_ID": 1000660, "HT_LONGITUDE": 4.60649, "HT_LATITUDE": 43.690332, "HT_TRIP_ADVISOR_SCORE": 4.0, "SRML_STAR_RATING": 3.0, "HOTEL_NAME": "Le Mas Des Ponts D'arles"}, "1000666": {"HT_HOTEL_ID": 1000666, "HT_LONGITUDE": 4.633387, "HT_LATITUDE": 43.666131, "HT_TRIP_ADVISOR_SCORE": 3.5, "SRML_STAR_RATING": 2.0, "HOTEL_NAME": "Hotel Ibis Arles"}, "1000600": {"HT_HOTEL_ID": 1000600, "HT_LONGITUDE": 4.422588, "HT_LATITUDE": 51.213244, "HT_TRIP_ADVISOR_SCORE": 4.0, "SRML_STAR_RATING": 4.0, "HOTEL_NAME": "Lindner Hotel & City Lounge"}, "1000664": {"HT_HOTEL_ID": 1000664, "HT_LONGITUDE": 4.626995, "HT_LATITUDE": 43.677377, "HT_TRIP_ADVISOR_SCORE": 4.0, "SRML_STAR_RATING": 4.0, "HOTEL_NAME": "H\u00f4tel Nord Pinus"}, "1000584": {"HT_HOTEL_ID": 1000584, "HT_LONGITUDE": 32.861841, "HT_LATITUDE": 39.90654, "HT_TRIP_ADVISOR_SCORE": 4.0, "SRML_STAR_RATING": 4.0, "HOTEL_NAME": "Aldino Hotel"}, "1000626": {"HT_HOTEL_ID": 1000626, "HT_LONGITUDE": -71.530078, "HT_LATITUDE": -16.387786, "HT_TRIP_ADVISOR_SCORE": 4.5, "SRML_STAR_RATING": 3.0, "HOTEL_NAME": "La Gruta Hotel"}, "1000703": {"HT_HOTEL_ID": 1000703, "HT_LONGITUDE": -123.92652, "HT_LATITUDE": 45.977942, "HT_TRIP_ADVISOR_SCORE": 3.0, "SRML_STAR_RATING": 2.0, "HOTEL_NAME": "Motel 6"}, "1000726": {"HT_HOTEL_ID": 1000726, "HT_LONGITUDE": -78.819134, "HT_LATITUDE": 43.888213, "HT_TRIP_ADVISOR_SCORE": 3.0, "SRML_STAR_RATING": 3.0, "HOTEL_NAME": "Durham Hotel East & Conference Centre Oshawa"}, "1000710": {"HT_HOTEL_ID": 1000710, "HT_LONGITUDE": 32.895491, "HT_LATITUDE": 24.092884, "HT_TRIP_ADVISOR_SCORE": 3.5, "SRML_STAR_RATING": 4.0, "HOTEL_NAME": "Pyramisa Isis Corniche Aswan Resort"}, "1000684": {"HT_HOTEL_ID": 1000684, "HT_LONGITUDE": 28.336621, "HT_LATITUDE": 57.810332, "HT_TRIP_ADVISOR_SCORE": 4.5, "SRML_STAR_RATING": 4.0, "HOTEL_NAME": "Dvor Podznoeva - Business Building"}, "1000671": {"HT_HOTEL_ID": 1000671, "HT_LONGITUDE": 25.249337, "HT_LATITUDE": 37.015556, "HT_TRIP_ADVISOR_SCORE": 4.5, "SRML_STAR_RATING": 4.0, "HOTEL_NAME": "Acquamarina Resort"}, "1000840": {"HT_HOTEL_ID": 1000840, "HT_LONGITUDE": 24.000253, "HT_LATITUDE": 38.044321, "HT_TRIP_ADVISOR_SCORE": 3.5, "SRML_STAR_RATING": 4.0, "HOTEL_NAME": "Aquamarina Hotel"}, "1000861": {"HT_HOTEL_ID": 1000861, "HT_LONGITUDE": 23.737865, "HT_LATITUDE": 37.983756, "HT_TRIP_ADVISOR_SCORE": 4.0, "SRML_STAR_RATING": 3.0, "HOTEL_NAME": "Athens Way Hotel"}, "1000870": {"HT_HOTEL_ID": 1000870, "HT_LONGITUDE": 23.724559, "HT_LATITUDE": 37.984676, "HT_TRIP_ADVISOR_SCORE": 3.5, "SRML_STAR_RATING": 4.0, "HOTEL_NAME": "Delphi Art Hotel \u039e\u03b5\u03bd\u03bf\u03b4\u03bf\u03c7\u03b5\u03af\u03bf"}, "1000814": {"HT_HOTEL_ID": 1000814, "HT_LONGITUDE": 23.819828, "HT_LATITUDE": 38.074198, "HT_TRIP_ADVISOR_SCORE": 4.0, "SRML_STAR_RATING": 5.0, "HOTEL_NAME": "Theoxenia Palace Hotel"}, "1000961": {"HT_HOTEL_ID": 1000961, "HT_LONGITUDE": 53.800811, "HT_LATITUDE": 23.534002, "HT_TRIP_ADVISOR_SCORE": 4.0, "SRML_STAR_RATING": 4.0, "HOTEL_NAME": "Tilal Liwa Hotel"}, "1000949": {"HT_HOTEL_ID": 1000949, "HT_LONGITUDE": 100.884725, "HT_LATITUDE": 12.935222, "HT_TRIP_ADVISOR_SCORE": 3.5, "SRML_STAR_RATING": 3.0, "HOTEL_NAME": "Eastiny Place Hotel"}, "1000963": {"HT_HOTEL_ID": 1000963, "HT_LONGITUDE": -112.35561, "HT_LATITUDE": 33.494791, "HT_TRIP_ADVISOR_SCORE": 4.5, "SRML_STAR_RATING": 4.0, "HOTEL_NAME": "Wigwam Resort"}, "1000908": {"HT_HOTEL_ID": 1000908, "HT_LONGITUDE": -156.444118, "HT_LATITUDE": 20.708843, "HT_TRIP_ADVISOR_SCORE": 4.5, "SRML_STAR_RATING": 3.0, "HOTEL_NAME": "Maui Kamaole"}, "1000931": {"HT_HOTEL_ID": 1000931, "HT_LONGITUDE": 23.647585, "HT_LATITUDE": 37.945594, "HT_TRIP_ADVISOR_SCORE": 3.5, "SRML_STAR_RATING": 2.0, "HOTEL_NAME": "Anita Hotel \u039e\u03b5\u03bd\u03bf\u03b4\u03bf\u03c7\u03b5\u03af\u03bf"}, "1000919": {"HT_HOTEL_ID": 1000919, "HT_LONGITUDE": 23.719031, "HT_LATITUDE": 37.904876, "HT_TRIP_ADVISOR_SCORE": 3.5, "SRML_STAR_RATING": 4.0, "HOTEL_NAME": "Tropical"}, "1000991": {"HT_HOTEL_ID": 1000991, "HT_LONGITUDE": -97.674118, "HT_LATITUDE": 30.474496, "HT_TRIP_ADVISOR_SCORE": 4.0, "SRML_STAR_RATING": 3.0, "HOTEL_NAME": "La Quinta Inn & Suites Round Rock South"}, "1001111": {"HT_HOTEL_ID": 1001111, "HT_LONGITUDE": 30.71412, "HT_LATITUDE": 36.875464, "HT_TRIP_ADVISOR_SCORE": 4.5, "SRML_STAR_RATING": 3.0, "HOTEL_NAME": "Metur Design Hotel "}, "1001058": {"HT_HOTEL_ID": 1001058, "HT_LONGITUDE": 4.812199, "HT_LATITUDE": 43.943635, "HT_TRIP_ADVISOR_SCORE": 4.5, "SRML_STAR_RATING": 2.0, "HOTEL_NAME": "H\u00f4tel Le Magnan"}, "1001063": {"HT_HOTEL_ID": 1001063, "HT_LONGITUDE": 121.476708, "HT_LATITUDE": -30.746141, "HT_TRIP_ADVISOR_SCORE": 4.0, "SRML_STAR_RATING": 4.0, "HOTEL_NAME": "Ibis Styles Kalgoorlie"}, "1001087": {"HT_HOTEL_ID": 1001087, "HT_LONGITUDE": -119.814672, "HT_LATITUDE": 39.529111, "HT_TRIP_ADVISOR_SCORE": 4.5, "SRML_STAR_RATING": 3.0, "HOTEL_NAME": "Eldorado Showroom"}, "1001130": {"HT_HOTEL_ID": 1001130, "HT_LONGITUDE": -85.531693, "HT_LATITUDE": 42.252681, "HT_TRIP_ADVISOR_SCORE": 3.0, "SRML_STAR_RATING": 2.0, "HOTEL_NAME": "Quality Inn"}, "1001269": {"HT_HOTEL_ID": 1001269, "HT_LONGITUDE": 2.141685, "HT_LATITUDE": 41.391006, "HT_TRIP_ADVISOR_SCORE": 4.0, "SRML_STAR_RATING": 5.0, "HOTEL_NAME": "Meli\u00e1 Barcelona Sarri\u00e0"}, "1001378": {"HT_HOTEL_ID": 1001378, "HT_LONGITUDE": 127.038665, "HT_LATITUDE": 37.501033, "HT_TRIP_ADVISOR_SCORE": 4.0, "SRML_STAR_RATING": 3.5, "HOTEL_NAME": "Blooming House"}, "1001314": {"HT_HOTEL_ID": 1001314, "HT_LONGITUDE": -85.074872, "HT_LATITUDE": 33.54889, "HT_TRIP_ADVISOR_SCORE": 4.5, "SRML_STAR_RATING": 2.0, "HOTEL_NAME": "Holiday Inn Express & Suites Carrollton West"}, "1001342": {"HT_HOTEL_ID": 1001342, "HT_LONGITUDE": 8.565734, "HT_LATITUDE": 47.438738, "HT_TRIP_ADVISOR_SCORE": 3.5, "SRML_STAR_RATING": 4.0, "HOTEL_NAME": "Dorint Airport-Hotel Z\u00fcrich"}, "1001343": {"HT_HOTEL_ID": 1001343, "HT_LONGITUDE": 2.070811, "HT_LATITUDE": 41.373337, "HT_TRIP_ADVISOR_SCORE": 4.0, "SRML_STAR_RATING": 3.0, "HOTEL_NAME": "Hotel Hesperia Sant Joan"}, "1001476": {"HT_HOTEL_ID": 1001476, "HT_LONGITUDE": -118.091932, "HT_LATITUDE": 52.8709, "HT_TRIP_ADVISOR_SCORE": 3.5, "SRML_STAR_RATING": 3.0, "HOTEL_NAME": "Maligne Lodge"}, "1001479": {"HT_HOTEL_ID": 1001479, "HT_LONGITUDE": -119.059736, "HT_LATITUDE": 35.415806, "HT_TRIP_ADVISOR_SCORE": 3.0, "SRML_STAR_RATING": 2.0, "HOTEL_NAME": "Sleep Inn & Suites"}, "1001456": {"HT_HOTEL_ID": 1001456, "HT_LONGITUDE": 35.47937, "HT_LATITUDE": 33.88337, "HT_TRIP_ADVISOR_SCORE": 4.5, "SRML_STAR_RATING": 5.0, "HOTEL_NAME": "Intercontinental Le Vendome Beirut"}, "1001481": {"HT_HOTEL_ID": 1001481, "HT_LONGITUDE": -119.046249, "HT_LATITUDE": 35.381648, "HT_TRIP_ADVISOR_SCORE": 3.5, "SRML_STAR_RATING": 3.0, "HOTEL_NAME": "Doubletree By Hilton Bakersfield"}, "1001465": {"HT_HOTEL_ID": 1001465, "HT_LONGITUDE": -115.571189, "HT_LATITUDE": 51.176498, "HT_TRIP_ADVISOR_SCORE": 3.0, "SRML_STAR_RATING": 2.0, "HOTEL_NAME": "King Edward Hotel - Banff"}, "1001534": {"HT_HOTEL_ID": 1001534, "HT_LONGITUDE": 5.230883, "HT_LATITUDE": 60.290484, "HT_TRIP_ADVISOR_SCORE": 4.5, "SRML_STAR_RATING": 4.0, "HOTEL_NAME": "Clarion Hotel Bergen Airport"}, "1001537": {"HT_HOTEL_ID": 1001537, "HT_LONGITUDE": 5.32022, "HT_LATITUDE": 60.39442, "HT_TRIP_ADVISOR_SCORE": 3.5, "SRML_STAR_RATING": 3.0, "HOTEL_NAME": "Scandic Neptun"}, "1001568": {"HT_HOTEL_ID": 1001568, "HT_LONGITUDE": 173.92921, "HT_LATITUDE": -41.509476, "HT_TRIP_ADVISOR_SCORE": 4.0, "SRML_STAR_RATING": 3.0, "HOTEL_NAME": "Commodore Court Motel"}, "1001570": {"HT_HOTEL_ID": 1001570, "HT_LONGITUDE": 8.43604, "HT_LATITUDE": 48.798864, "HT_TRIP_ADVISOR_SCORE": 3.0, "SRML_STAR_RATING": 3.0, "HOTEL_NAME": "Hotel Kull Von Schmidsfelden"}, "1001599": {"HT_HOTEL_ID": 1001599, "HT_LONGITUDE": -1.906477, "HT_LATITUDE": 52.48034, "HT_TRIP_ADVISOR_SCORE": 3.0, "SRML_STAR_RATING": 4.0, "HOTEL_NAME": "Copthorne Hotel Birmingham"}, "1001603": {"HT_HOTEL_ID": 1001603, "HT_LONGITUDE": -43.93375, "HT_LATITUDE": -19.937841, "HT_TRIP_ADVISOR_SCORE": 4.0, "SRML_STAR_RATING": 3.0, "HOTEL_NAME": "Promenade Ianelli"}, "1001607": {"HT_HOTEL_ID": 1001607, "HT_LONGITUDE": -43.940872, "HT_LATITUDE": -19.926856, "HT_TRIP_ADVISOR_SCORE": 3.5, "SRML_STAR_RATING": 4.0, "HOTEL_NAME": "Bristol Golden Plaza Hotel"}, "1001582": {"HT_HOTEL_ID": 1001582, "HT_LONGITUDE": -1.827132, "HT_LATITUDE": 52.445568, "HT_TRIP_ADVISOR_SCORE": 4.0, "SRML_STAR_RATING": 3.0, "HOTEL_NAME": "Best Western Westley Hotel"}, "1001567": {"HT_HOTEL_ID": 1001567, "HT_LONGITUDE": 173.96661, "HT_LATITUDE": -41.513252, "HT_TRIP_ADVISOR_SCORE": 4.5, "SRML_STAR_RATING": 4.0, "HOTEL_NAME": "Colonial Motel"}, "1001679": {"HT_HOTEL_ID": 1001679, "HT_LONGITUDE": 100.542703, "HT_LATITUDE": 13.760435, "HT_TRIP_ADVISOR_SCORE": 3.5, "SRML_STAR_RATING": 3.0, "HOTEL_NAME": "Seasons Siam Hotel"}, "1001725": {"HT_HOTEL_ID": 1001725, "HT_LONGITUDE": -93.348865, "HT_LATITUDE": 44.856336, "HT_TRIP_ADVISOR_SCORE": 4.5, "SRML_STAR_RATING": 3.0, "HOTEL_NAME": "Hilton Garden Inn Minneapolis/Bloomington"}, "1001659": {"HT_HOTEL_ID": 1001659, "HT_LONGITUDE": 100.753726, "HT_LATITUDE": 13.72322, "HT_TRIP_ADVISOR_SCORE": 3.5, "SRML_STAR_RATING": 3.0, "HOTEL_NAME": "The Phoenix Hotel Bangkok"}, "1001714": {"HT_HOTEL_ID": 1001714, "HT_LONGITUDE": -3.048388, "HT_LATITUDE": 53.803635, "HT_TRIP_ADVISOR_SCORE": 4.0, "SRML_STAR_RATING": 2.0, "HOTEL_NAME": "Travelodge Blackpool South Shore Hotel"}, "1001668": {"HT_HOTEL_ID": 1001668, "HT_LONGITUDE": 35.88694, "HT_LATITUDE": 31.959865, "HT_TRIP_ADVISOR_SCORE": 4.0, "SRML_STAR_RATING": 4.0, "HOTEL_NAME": "Century Park Hotel"}, "1001648": {"HT_HOTEL_ID": 1001648, "HT_LONGITUDE": 99.95719, "HT_LATITUDE": 12.553113, "HT_TRIP_ADVISOR_SCORE": 4.5, "SRML_STAR_RATING": 3.0, "HOTEL_NAME": "The Donkey's Rest"}, "1001649": {"HT_HOTEL_ID": 1001649, "HT_LONGITUDE": -2.941855, "HT_LATITUDE": 43.267473, "HT_TRIP_ADVISOR_SCORE": 4.5, "SRML_STAR_RATING": 5.0, "HOTEL_NAME": "Meli\u00e1 Bilbao"}, "1001674": {"HT_HOTEL_ID": 1001674, "HT_LONGITUDE": 28.974061, "HT_LATITUDE": 41.003645, "HT_TRIP_ADVISOR_SCORE": 4.5, "SRML_STAR_RATING": 4.0, "HOTEL_NAME": "Erguvan Hotel"}, "1001800": {"HT_HOTEL_ID": 1001800, "HT_LONGITUDE": 77.607872, "HT_LATITUDE": 12.974256, "HT_TRIP_ADVISOR_SCORE": 4.0, "SRML_STAR_RATING": 2.0, "HOTEL_NAME": "The Curzon Court"}, "1001756": {"HT_HOTEL_ID": 1001756, "HT_LONGITUDE": 11.329431, "HT_LATITUDE": 44.496972, "HT_TRIP_ADVISOR_SCORE": 3.0, "SRML_STAR_RATING": 3.0, "HOTEL_NAME": "Hotel Re Enzo"}, "1001811": {"HT_HOTEL_ID": 1001811, "HT_LONGITUDE": 77.60963, "HT_LATITUDE": 12.972719, "HT_TRIP_ADVISOR_SCORE": 3.5, "SRML_STAR_RATING": 3.0, "HOTEL_NAME": "Meenal A Boutique Hotel"}, "1001939": {"HT_HOTEL_ID": 1001939, "HT_LONGITUDE": 139.760209, "HT_LATITUDE": 35.668234, "HT_TRIP_ADVISOR_SCORE": 3.5, "SRML_STAR_RATING": 3.5, "HOTEL_NAME": "Ginza Grand Hotel"}, "1001878": {"HT_HOTEL_ID": 1001878, "HT_LONGITUDE": 72.870172, "HT_LATITUDE": 19.120995, "HT_TRIP_ADVISOR_SCORE": 4.0, "SRML_STAR_RATING": 3.0, "HOTEL_NAME": "The Paradise By Tunga"}, "1001929": {"HT_HOTEL_ID": 1001929, "HT_LONGITUDE": 72.900561, "HT_LATITUDE": 19.059862, "HT_TRIP_ADVISOR_SCORE": 3.5, "SRML_STAR_RATING": 3.0, "HOTEL_NAME": "Hotel Plaza"}, "1001897": {"HT_HOTEL_ID": 1001897, "HT_LONGITUDE": 72.810186, "HT_LATITUDE": 18.963553, "HT_TRIP_ADVISOR_SCORE": 3.5, "SRML_STAR_RATING": 2.0, "HOTEL_NAME": "Hotel Royal Castle"}, "1002004": {"HT_HOTEL_ID": 1002004, "HT_LONGITUDE": 4.151641, "HT_LATITUDE": 51.155552, "HT_TRIP_ADVISOR_SCORE": 3.5, "SRML_STAR_RATING": 4.0, "HOTEL_NAME": "Hotel Serwir"}, "1001983": {"HT_HOTEL_ID": 1001983, "HT_LONGITUDE": 108.192887, "HT_LATITUDE": 10.942686, "HT_TRIP_ADVISOR_SCORE": 4.0, "SRML_STAR_RATING": 2.0, "HOTEL_NAME": "Palmira Beach Resort & Spa"}, "1001985": {"HT_HOTEL_ID": 1001985, "HT_LONGITUDE": -71.136107, "HT_LATITUDE": 42.401862, "HT_TRIP_ADVISOR_SCORE": 4.0, "SRML_STAR_RATING": 3.0, "HOTEL_NAME": "Homewood Suites By Hilton Boston/Cambridge-Arlington, Ma"}, "1002015": {"HT_HOTEL_ID": 1002015, "HT_LONGITUDE": 4.36273, "HT_LATITUDE": 50.85609, "HT_TRIP_ADVISOR_SCORE": 3.0, "SRML_STAR_RATING": 3.0, "HOTEL_NAME": "Best Western City Centre"}, "1002021": {"HT_HOTEL_ID": 1002021, "HT_LONGITUDE": 4.347837, "HT_LATITUDE": 50.853023, "HT_TRIP_ADVISOR_SCORE": 4.0, "SRML_STAR_RATING": 3.0, "HOTEL_NAME": "Citadines Sainte-Catherine Brussels"}, "1002024": {"HT_HOTEL_ID": 1002024, "HT_LONGITUDE": 134.513111, "HT_LATITUDE": 34.769566, "HT_TRIP_ADVISOR_SCORE": 3.5, "SRML_STAR_RATING": 2.0, "HOTEL_NAME": "Livemax Resort Setouchi Sea Front"}, "1001977": {"HT_HOTEL_ID": 1001977, "HT_LONGITUDE": -71.050408, "HT_LATITUDE": 42.36752, "HT_TRIP_ADVISOR_SCORE": 4.5, "SRML_STAR_RATING": 4.0, "HOTEL_NAME": "Battery Wharf Hotel Boston Waterfront"}, "1002105": {"HT_HOTEL_ID": 1002105, "HT_LONGITUDE": 7.587658, "HT_LATITUDE": 47.560392, "HT_TRIP_ADVISOR_SCORE": 4.5, "SRML_STAR_RATING": 5.0, "HOTEL_NAME": "Grand Hotel Les Trois Rois Basel"}, "1002058": {"HT_HOTEL_ID": 1002058, "HT_LONGITUDE": 4.358895, "HT_LATITUDE": 50.864846, "HT_TRIP_ADVISOR_SCORE": 3.5, "SRML_STAR_RATING": 4.0, "HOTEL_NAME": "Husa President Park"}, "1002085": {"HT_HOTEL_ID": 1002085, "HT_LONGITUDE": -47.851796, "HT_LATITUDE": -15.786387, "HT_TRIP_ADVISOR_SCORE": 3.5, "SRML_STAR_RATING": 3.0, "HOTEL_NAME": "Hotel The Sun"}, "1002088": {"HT_HOTEL_ID": 1002088, "HT_LONGITUDE": 123.751623, "HT_LATITUDE": 9.54803, "HT_TRIP_ADVISOR_SCORE": 4.5, "SRML_STAR_RATING": 3.0, "HOTEL_NAME": "Linaw Beach Resort"}, "1002143": {"HT_HOTEL_ID": 1002143, "HT_LONGITUDE": 17.096235, "HT_LATITUDE": 48.150137, "HT_TRIP_ADVISOR_SCORE": 4.0, "SRML_STAR_RATING": 4.0, "HOTEL_NAME": "Hotel Antares"}, "1002167": {"HT_HOTEL_ID": 1002167, "HT_LONGITUDE": -58.38819, "HT_LATITUDE": -34.600412, "HT_TRIP_ADVISOR_SCORE": 3.0, "SRML_STAR_RATING": 4.0, "HOTEL_NAME": "Mayflower Suites"}, "1002132": {"HT_HOTEL_ID": 1002132, "HT_LONGITUDE": 115.164184, "HT_LATITUDE": -8.685909, "HT_TRIP_ADVISOR_SCORE": 4.5, "SRML_STAR_RATING": 4.0, "HOTEL_NAME": "Villa Uma Sapna"}, "1002200": {"HT_HOTEL_ID": 1002200, "HT_LONGITUDE": -78.192919, "HT_LATITUDE": 43.019516, "HT_TRIP_ADVISOR_SCORE": 4.0, "SRML_STAR_RATING": 3.0, "HOTEL_NAME": "Hampton Inn"}, "1002135": {"HT_HOTEL_ID": 1002135, "HT_LONGITUDE": -89.244529, "HT_LATITUDE": 13.709618, "HT_TRIP_ADVISOR_SCORE": 4.0, "SRML_STAR_RATING": 2.0, "HOTEL_NAME": "Hostal Lonigo"}, "1002248": {"HT_HOTEL_ID": 1002248, "HT_LONGITUDE": -71.54563, "HT_LATITUDE": 42.481605, "HT_TRIP_ADVISOR_SCORE": 4.0, "SRML_STAR_RATING": 3.0, "HOTEL_NAME": "Boxboro Regency Hotel And Conference Center"}, "1002252": {"HT_HOTEL_ID": 1002252, "HT_LONGITUDE": -41.883371, "HT_LATITUDE": -22.752641, "HT_TRIP_ADVISOR_SCORE": 4.5, "SRML_STAR_RATING": 4.0, "HOTEL_NAME": "Pousada Abracadabra"}, "1002221": {"HT_HOTEL_ID": 1002221, "HT_LONGITUDE": 26.098313, "HT_LATITUDE": 44.435615, "HT_TRIP_ADVISOR_SCORE": 3.5, "SRML_STAR_RATING": 4.0, "HOTEL_NAME": "Ramada Bucharest Majestic Hotel"}, "1002259": {"HT_HOTEL_ID": 1002259, "HT_LONGITUDE": -41.875704, "HT_LATITUDE": -22.744677, "HT_TRIP_ADVISOR_SCORE": 4.0, "SRML_STAR_RATING": 3.0, "HOTEL_NAME": "Pousada Hibiscus Beach"}, "1002305": {"HT_HOTEL_ID": 1002305, "HT_LONGITUDE": -7.640916, "HT_LATITUDE": 33.593146, "HT_TRIP_ADVISOR_SCORE": 3.5, "SRML_STAR_RATING": 5.0, "HOTEL_NAME": "Gray Boutique Hotel And Spa"}, "1002310": {"HT_HOTEL_ID": 1002310, "HT_LONGITUDE": -7.67058, "HT_LATITUDE": 33.597234, "HT_TRIP_ADVISOR_SCORE": 3.0, "SRML_STAR_RATING": 4.0, "HOTEL_NAME": "H\u00f4tel Casablanca Le Lido Thalasso & Spa (Ex Riad Salam )"}, "1002297": {"HT_HOTEL_ID": 1002297, "HT_LONGITUDE": -81.523675, "HT_LATITUDE": 40.795462, "HT_TRIP_ADVISOR_SCORE": 4.5, "SRML_STAR_RATING": 3.0, "HOTEL_NAME": "Hampton Inn Massillon"}, "1002478": {"HT_HOTEL_ID": 1002478, "HT_LONGITUDE": -2.895166, "HT_LATITUDE": 53.190186, "HT_TRIP_ADVISOR_SCORE": 4.0, "SRML_STAR_RATING": 4.0, "HOTEL_NAME": "Crowne Plaza Chester"}, "1002510": {"HT_HOTEL_ID": 1002510, "HT_LONGITUDE": -9.134343, "HT_LATITUDE": 39.413647, "HT_TRIP_ADVISOR_SCORE": 3.0, "SRML_STAR_RATING": 3.0, "HOTEL_NAME": "Caldas Internacional Hotel"}, "1002554": {"HT_HOTEL_ID": 1002554, "HT_LONGITUDE": 24.030962, "HT_LATITUDE": 37.868891, "HT_TRIP_ADVISOR_SCORE": 3.5, "SRML_STAR_RATING": 3.0, "HOTEL_NAME": "Sea Sight Boutique Hotel"}, "1002492": {"HT_HOTEL_ID": 1002492, "HT_LONGITUDE": 8.991753, "HT_LATITUDE": 39.162198, "HT_TRIP_ADVISOR_SCORE": 4.0, "SRML_STAR_RATING": 3.0, "HOTEL_NAME": "S'incantu Hotel Rurale"}, "1002470": {"HT_HOTEL_ID": 1002470, "HT_LONGITUDE": -2.94484, "HT_LATITUDE": 53.110109, "HT_TRIP_ADVISOR_SCORE": 4.0, "SRML_STAR_RATING": 3.0, "HOTEL_NAME": "Rossett Hall Hotel"}, "1002472": {"HT_HOTEL_ID": 1002472, "HT_LONGITUDE": -2.854698, "HT_LATITUDE": 53.206232, "HT_TRIP_ADVISOR_SCORE": 4.0, "SRML_STAR_RATING": 4.0, "HOTEL_NAME": "Doubletree By Hilton Hotel & Spa Chester"}, "1002744": {"HT_HOTEL_ID": 1002744, "HT_LONGITUDE": -95.435916, "HT_LATITUDE": 30.064961, "HT_TRIP_ADVISOR_SCORE": 3.5, "SRML_STAR_RATING": 2.0, "HOTEL_NAME": "Americas Best Value Inn & Suites - Spring / N. Houston"}, "1002774": {"HT_HOTEL_ID": 1002774, "HT_LONGITUDE": -82.58005, "HT_LATITUDE": 35.594271, "HT_TRIP_ADVISOR_SCORE": 3.5, "SRML_STAR_RATING": 3.0, "HOTEL_NAME": "Crowne Plaza Resort Asheville"}, "1002841": {"HT_HOTEL_ID": 1002841, "HT_LONGITUDE": 115.451937, "HT_LATITUDE": -8.663491, "HT_TRIP_ADVISOR_SCORE": 4.0, "SRML_STAR_RATING": 3.0, "HOTEL_NAME": "Mahagiri Resort Nusa Lembongan"}, "1002898": {"HT_HOTEL_ID": 1002898, "HT_LONGITUDE": -79.160111, "HT_LATITUDE": 40.611518, "HT_TRIP_ADVISOR_SCORE": 4.5, "SRML_STAR_RATING": 3.0, "HOTEL_NAME": "Hilton Garden Inn Indiana At Iup"}, "1003012": {"HT_HOTEL_ID": 1003012, "HT_LONGITUDE": -83.690287, "HT_LATITUDE": 42.306934, "HT_TRIP_ADVISOR_SCORE": 4.0, "SRML_STAR_RATING": 2.0, "HOTEL_NAME": "Red Roof North"}, "1003156": {"HT_HOTEL_ID": 1003156, "HT_LONGITUDE": 12.505226, "HT_LATITUDE": 41.905149, "HT_TRIP_ADVISOR_SCORE": 4.0, "SRML_STAR_RATING": 3.0, "HOTEL_NAME": "Hotel Des Artistes"}, "1003125": {"HT_HOTEL_ID": 1003125, "HT_LONGITUDE": -3.068841, "HT_LATITUDE": 50.740974, "HT_TRIP_ADVISOR_SCORE": 5.0, "SRML_STAR_RATING": 3.0, "HOTEL_NAME": "The White Cottage B & B At Colyton"}, "1003091": {"HT_HOTEL_ID": 1003091, "HT_LONGITUDE": 153.146832, "HT_LATITUDE": -30.239388, "HT_TRIP_ADVISOR_SCORE": 3.5, "SRML_STAR_RATING": 4.0, "HOTEL_NAME": "Beach Haven Executive Apartments"}, "1003242": {"HT_HOTEL_ID": 1003242, "HT_LONGITUDE": 6.14746, "HT_LATITUDE": 46.201449, "HT_TRIP_ADVISOR_SCORE": 4.5, "SRML_STAR_RATING": 5.0, "HOTEL_NAME": "Hotel Les Armures"}, "1003218": {"HT_HOTEL_ID": 1003218, "HT_LONGITUDE": -80.611704, "HT_LATITUDE": 28.333257, "HT_TRIP_ADVISOR_SCORE": 4.0, "SRML_STAR_RATING": 3.0, "HOTEL_NAME": "La Quinta Inn Cocoa Beach-Port Canaveral"}, "1003299": {"HT_HOTEL_ID": 1003299, "HT_LONGITUDE": 12.578237, "HT_LATITUDE": 55.639567, "HT_TRIP_ADVISOR_SCORE": 4.0, "SRML_STAR_RATING": 4.0, "HOTEL_NAME": "Ac Hotel Bella Sky Copenhagen"}, "1003381": {"HT_HOTEL_ID": 1003381, "HT_LONGITUDE": -123.094311, "HT_LATITUDE": 44.047687, "HT_TRIP_ADVISOR_SCORE": 4.5, "SRML_STAR_RATING": 2.0, "HOTEL_NAME": "Home2 Suites By Hilton Eugene Downtown University Area"}, "1003366": {"HT_HOTEL_ID": 1003366, "HT_LONGITUDE": -81.492709, "HT_LATITUDE": 41.460309, "HT_TRIP_ADVISOR_SCORE": 4.0, "SRML_STAR_RATING": 2.0, "HOTEL_NAME": "Home2 Suites By Hilton-Cleveland Beachwood"}, "1003369": {"HT_HOTEL_ID": 1003369, "HT_LONGITUDE": -92.180141, "HT_LATITUDE": 32.506698, "HT_TRIP_ADVISOR_SCORE": 4.5, "SRML_STAR_RATING": 2.0, "HOTEL_NAME": "Home2 Suites By Hilton West Monroe"}, "1003330": {"HT_HOTEL_ID": 1003330, "HT_LONGITUDE": -72.641575, "HT_LATITUDE": 42.17608, "HT_TRIP_ADVISOR_SCORE": 4.5, "SRML_STAR_RATING": 2.0, "HOTEL_NAME": "Fairfield Inn & Suites By Marriott Springfield Holyoke"}, "1003357": {"HT_HOTEL_ID": 1003357, "HT_LONGITUDE": -97.454639, "HT_LATITUDE": 27.805211, "HT_TRIP_ADVISOR_SCORE": 2.5, "SRML_STAR_RATING": 2.0, "HOTEL_NAME": "Rodeway Inn"}, "1003504": {"HT_HOTEL_ID": 1003504, "HT_LONGITUDE": -87.378607, "HT_LATITUDE": 21.524189, "HT_TRIP_ADVISOR_SCORE": 4.0, "SRML_STAR_RATING": 3.0, "HOTEL_NAME": "Hotel Casa Lupita"}, "1003488": {"HT_HOTEL_ID": 1003488, "HT_LONGITUDE": -91.14469, "HT_LATITUDE": 40.790178, "HT_TRIP_ADVISOR_SCORE": 4.0, "SRML_STAR_RATING": 3.0, "HOTEL_NAME": "Comfort Suites"}, "1003541": {"HT_HOTEL_ID": 1003541, "HT_LONGITUDE": 121.410164, "HT_LATITUDE": 31.203935, "HT_TRIP_ADVISOR_SCORE": 3.5, "SRML_STAR_RATING": 4.0, "HOTEL_NAME": "Rainbow Hotel"}, "1003661": {"HT_HOTEL_ID": 1003661, "HT_LONGITUDE": 108.223636, "HT_LATITUDE": 16.074176, "HT_TRIP_ADVISOR_SCORE": 2.5, "SRML_STAR_RATING": 3.0, "HOTEL_NAME": "Song Thu Hotel"}, "1003641": {"HT_HOTEL_ID": 1003641, "HT_LONGITUDE": -81.117541, "HT_LATITUDE": 29.255001, "HT_TRIP_ADVISOR_SCORE": 4.5, "SRML_STAR_RATING": 3.0, "HOTEL_NAME": "Hampton Inn Daytona/Ormond Beach"}, "1003732": {"HT_HOTEL_ID": 1003732, "HT_LONGITUDE": 18.062528, "HT_LATITUDE": 42.660123, "HT_TRIP_ADVISOR_SCORE": 4.5, "SRML_STAR_RATING": 4.0, "HOTEL_NAME": "Valamar Lacroma Dubrovnik"}, "1003754": {"HT_HOTEL_ID": 1003754, "HT_LONGITUDE": -87.711043, "HT_LATITUDE": 41.99212, "HT_TRIP_ADVISOR_SCORE": 3.0, "SRML_STAR_RATING": 2.0, "HOTEL_NAME": "Rodeway Inn"}, "1003785": {"HT_HOTEL_ID": 1003785, "HT_LONGITUDE": 18.070181, "HT_LATITUDE": 42.660837, "HT_TRIP_ADVISOR_SCORE": 5.0, "SRML_STAR_RATING": 4.0, "HOTEL_NAME": "Pervanovo Apartments"}, "1181279": {"HT_HOTEL_ID": 1181279, "HT_LONGITUDE": 120.67984, "HT_LATITUDE": 24.139115, "HT_TRIP_ADVISOR_SCORE": 2.5, "SRML_STAR_RATING": 4.0, "HOTEL_NAME": "Fushin Hotel Taichung"}, "1003820": {"HT_HOTEL_ID": 1003820, "HT_LONGITUDE": 30.850912, "HT_LATITUDE": -29.799552, "HT_TRIP_ADVISOR_SCORE": 4.5, "SRML_STAR_RATING": 3.0, "HOTEL_NAME": "Pinetown Lala Land"}, "1003825": {"HT_HOTEL_ID": 1003825, "HT_LONGITUDE": 120.302844, "HT_LATITUDE": 22.635648, "HT_TRIP_ADVISOR_SCORE": 4.5, "SRML_STAR_RATING": 2.5, "HOTEL_NAME": "True Love Kaohsiung"}, "1003784": {"HT_HOTEL_ID": 1003784, "HT_LONGITUDE": -87.624229, "HT_LATITUDE": 41.884842, "HT_TRIP_ADVISOR_SCORE": 4.5, "SRML_STAR_RATING": 4.0, "HOTEL_NAME": "Millenium Park Plaza"}, "1003914": {"HT_HOTEL_ID": 1003914, "HT_LONGITUDE": 5.051065, "HT_LATITUDE": 47.32796, "HT_TRIP_ADVISOR_SCORE": 4.0, "SRML_STAR_RATING": 4.0, "HOTEL_NAME": "Hotel Mercure Dijon Centre Cl\u00e9menceau"}, "1003878": {"HT_HOTEL_ID": 1003878, "HT_LONGITUDE": -1.910283, "HT_LATITUDE": 54.291338, "HT_TRIP_ADVISOR_SCORE": 4.5, "SRML_STAR_RATING": 5.0, "HOTEL_NAME": "Wensleydale Heifer"}, "1003853": {"HT_HOTEL_ID": 1003853, "HT_LONGITUDE": 80.113068, "HT_LATITUDE": 6.122199, "HT_TRIP_ADVISOR_SCORE": 4.5, "SRML_STAR_RATING": 4.0, "HOTEL_NAME": "Roman Beach Hotel"}, "1003892": {"HT_HOTEL_ID": 1003892, "HT_LONGITUDE": -96.921287, "HT_LATITUDE": 32.905804, "HT_TRIP_ADVISOR_SCORE": 4.5, "SRML_STAR_RATING": 5.0, "HOTEL_NAME": "Omni Dallas Hotel At Park West"}, "1003930": {"HT_HOTEL_ID": 1003930, "HT_LONGITUDE": 11.027291, "HT_LATITUDE": 33.825726, "HT_TRIP_ADVISOR_SCORE": 4.5, "SRML_STAR_RATING": 3.0, "HOTEL_NAME": "Menzel Dija"}, "1003990": {"HT_HOTEL_ID": 1003990, "HT_LONGITUDE": 107.638413, "HT_LATITUDE": -2.738867, "HT_TRIP_ADVISOR_SCORE": 4.0, "SRML_STAR_RATING": 3.0, "HOTEL_NAME": "Airy Tanjung Pandan Depati Rahat 21 Belitung"}, "1003953": {"HT_HOTEL_ID": 1003953, "HT_LONGITUDE": 121.615603, "HT_LATITUDE": 38.918922, "HT_TRIP_ADVISOR_SCORE": 3.5, "SRML_STAR_RATING": 4.0, "HOTEL_NAME": "Sunjoy Hotel"}, "1003936": {"HT_HOTEL_ID": 1003936, "HT_LONGITUDE": -17.4419, "HT_LATITUDE": 14.6634, "HT_TRIP_ADVISOR_SCORE": 3.5, "SRML_STAR_RATING": 3.0, "HOTEL_NAME": "Hotel Sokhamon"}, "1004015": {"HT_HOTEL_ID": 1004015, "HT_LONGITUDE": 2.981398, "HT_LATITUDE": 46.547902, "HT_TRIP_ADVISOR_SCORE": 4.0, "SRML_STAR_RATING": 4.0, "HOTEL_NAME": "Le Haras Du Ch\u00e2teau"}, "1004069": {"HT_HOTEL_ID": 1004069, "HT_LONGITUDE": 10.75502, "HT_LATITUDE": 51.82118, "HT_TRIP_ADVISOR_SCORE": 4.5, "SRML_STAR_RATING": 3.0, "HOTEL_NAME": "Hasser\u00f6der Burghotel"}, "1003999": {"HT_HOTEL_ID": 1003999, "HT_LONGITUDE": -2.132331, "HT_LATITUDE": 47.765142, "HT_TRIP_ADVISOR_SCORE": 4.0, "SRML_STAR_RATING": 2.0, "HOTEL_NAME": "Logis Europ H\u00f4tel"}, "1004033": {"HT_HOTEL_ID": 1004033, "HT_LONGITUDE": 98.346665, "HT_LATITUDE": 7.853036, "HT_TRIP_ADVISOR_SCORE": 4.0, "SRML_STAR_RATING": 4.0, "HOTEL_NAME": "Anchan Private Pool Villa"}, "1004009": {"HT_HOTEL_ID": 1004009, "HT_LONGITUDE": 25.728027, "HT_LATITUDE": 35.120753, "HT_TRIP_ADVISOR_SCORE": 4.5, "SRML_STAR_RATING": 3.0, "HOTEL_NAME": "Villa Angela"}, "1004106": {"HT_HOTEL_ID": 1004106, "HT_LONGITUDE": 7.457638, "HT_LATITUDE": 51.513351, "HT_TRIP_ADVISOR_SCORE": 4.0, "SRML_STAR_RATING": 3.0, "HOTEL_NAME": "Cityhotel Dortmund"}, "1004180": {"HT_HOTEL_ID": 1004180, "HT_LONGITUDE": -3.186813, "HT_LATITUDE": 55.953447, "HT_TRIP_ADVISOR_SCORE": 4.5, "SRML_STAR_RATING": 4.0, "HOTEL_NAME": "Princes Street Suites"}, "1004208": {"HT_HOTEL_ID": 1004208, "HT_LONGITUDE": -3.185068, "HT_LATITUDE": 55.956415, "HT_TRIP_ADVISOR_SCORE": 4.5, "SRML_STAR_RATING": 5.0, "HOTEL_NAME": "The Glasshouse, Autograph Collection"}, "1004171": {"HT_HOTEL_ID": 1004171, "HT_LONGITUDE": 7.781014, "HT_LATITUDE": 44.664248, "HT_TRIP_ADVISOR_SCORE": 4.0, "SRML_STAR_RATING": 4.0, "HOTEL_NAME": "Best Western Hotel Langhe Cherasco"}, "1004280": {"HT_HOTEL_ID": 1004280, "HT_LONGITUDE": -106.409701, "HT_LATITUDE": 31.780308, "HT_TRIP_ADVISOR_SCORE": 4.0, "SRML_STAR_RATING": 3.0, "HOTEL_NAME": "Embassy Suites By Hilton El Paso"}, "1004243": {"HT_HOTEL_ID": 1004243, "HT_LONGITUDE": 100.068304, "HT_LATITUDE": 9.535935, "HT_TRIP_ADVISOR_SCORE": 4.5, "SRML_STAR_RATING": 2.0, "HOTEL_NAME": "City Dance Hotel"}, "1004299": {"HT_HOTEL_ID": 1004299, "HT_LONGITUDE": -80.085421, "HT_LATITUDE": 42.04994, "HT_TRIP_ADVISOR_SCORE": 4.5, "SRML_STAR_RATING": 3.0, "HOTEL_NAME": "Hilton Garden Inn Erie"}, "1004342": {"HT_HOTEL_ID": 1004342, "HT_LONGITUDE": 24.820052, "HT_LATITUDE": 60.225282, "HT_TRIP_ADVISOR_SCORE": 3.5, "SRML_STAR_RATING": 3.0, "HOTEL_NAME": "Hellsten Espoo"}, "1004286": {"HT_HOTEL_ID": 1004286, "HT_LONGITUDE": -106.39488, "HT_LATITUDE": 31.780641, "HT_TRIP_ADVISOR_SCORE": 4.5, "SRML_STAR_RATING": 3.0, "HOTEL_NAME": "Hampton Inn & Suites El Paso-Airport"}, "1004323": {"HT_HOTEL_ID": 1004323, "HT_LONGITUDE": -97.084972, "HT_LATITUDE": 15.865481, "HT_TRIP_ADVISOR_SCORE": 4.0, "SRML_STAR_RATING": 4.0, "HOTEL_NAME": "Hotel Suites Villasol"}, "1004308": {"HT_HOTEL_ID": 1004308, "HT_LONGITUDE": 27.875311, "HT_LATITUDE": -25.724713, "HT_TRIP_ADVISOR_SCORE": 4.0, "SRML_STAR_RATING": 3.0, "HOTEL_NAME": "Khayamanzi Guesthouse"}, "1004443": {"HT_HOTEL_ID": 1004443, "HT_LONGITUDE": -104.821985, "HT_LATITUDE": 38.844198, "HT_TRIP_ADVISOR_SCORE": 2.5, "SRML_STAR_RATING": 2.0, "HOTEL_NAME": "Econo Lodge Downtown"}, "1004390": {"HT_HOTEL_ID": 1004390, "HT_LONGITUDE": -8.158291, "HT_LATITUDE": 37.084922, "HT_TRIP_ADVISOR_SCORE": 2.5, "SRML_STAR_RATING": 3.0, "HOTEL_NAME": "Algarve Gardens"}, "1004372": {"HT_HOTEL_ID": 1004372, "HT_LONGITUDE": 4.3717, "HT_LATITUDE": 50.846218, "HT_TRIP_ADVISOR_SCORE": 4.5, "SRML_STAR_RATING": 4.0, "HOTEL_NAME": "Courtyard Brussels Eu"}, "1004414": {"HT_HOTEL_ID": 1004414, "HT_LONGITUDE": 129.03574, "HT_LATITUDE": 35.109196, "HT_TRIP_ADVISOR_SCORE": 4.5, "SRML_STAR_RATING": 3.0, "HOTEL_NAME": "Hillside Hotel"}, "1004496": {"HT_HOTEL_ID": 1004496, "HT_LONGITUDE": -97.328, "HT_LATITUDE": 32.748, "HT_TRIP_ADVISOR_SCORE": 4.5, "SRML_STAR_RATING": 4.0, "HOTEL_NAME": "Omni Fort Worth Hotel"}, "1004469": {"HT_HOTEL_ID": 1004469, "HT_LONGITUDE": -61.011492, "HT_LATITUDE": 14.475829, "HT_TRIP_ADVISOR_SCORE": 3.0, "SRML_STAR_RATING": 3.0, "HOTEL_NAME": "Residence Marinehotel"}, "1004512": {"HT_HOTEL_ID": 1004512, "HT_LONGITUDE": 27.54511, "HT_LATITUDE": -21.202957, "HT_TRIP_ADVISOR_SCORE": 4.5, "SRML_STAR_RATING": 3.0, "HOTEL_NAME": "Inca Rose Guest House"}, "1004611": {"HT_HOTEL_ID": 1004611, "HT_LONGITUDE": 25.341845, "HT_LATITUDE": 37.414482, "HT_TRIP_ADVISOR_SCORE": 4.0, "SRML_STAR_RATING": 4.0, "HOTEL_NAME": "Petinos Hotel"}, "1004651": {"HT_HOTEL_ID": 1004651, "HT_LONGITUDE": -94.821323, "HT_LATITUDE": 29.270643, "HT_TRIP_ADVISOR_SCORE": 4.0, "SRML_STAR_RATING": 4.0, "HOTEL_NAME": "Hilton Galveston Island Resort"}, "1004684": {"HT_HOTEL_ID": 1004684, "HT_LONGITUDE": 3.689635, "HT_LATITUDE": 51.026003, "HT_TRIP_ADVISOR_SCORE": 3.5, "SRML_STAR_RATING": 4.0, "HOTEL_NAME": "Holiday Inn Gent Expo"}, "1004705": {"HT_HOTEL_ID": 1004705, "HT_LONGITUDE": 8.487551, "HT_LATITUDE": 44.308808, "HT_TRIP_ADVISOR_SCORE": 4.0, "SRML_STAR_RATING": 4.0, "HOTEL_NAME": "Hotel Nh Savona Darsena"}, "1004733": {"HT_HOTEL_ID": 1004733, "HT_LONGITUDE": 73.941402, "HT_LATITUDE": 15.217334, "HT_TRIP_ADVISOR_SCORE": 4.0, "SRML_STAR_RATING": 2.0, "HOTEL_NAME": "Hotel Siesta De Goa"}, "1004686": {"HT_HOTEL_ID": 1004686, "HT_LONGITUDE": 3.725599, "HT_LATITUDE": 51.054798, "HT_TRIP_ADVISOR_SCORE": 4.0, "SRML_STAR_RATING": 4.0, "HOTEL_NAME": "Hotel Nh Gent Belfort"}, "1004720": {"HT_HOTEL_ID": 1004720, "HT_LONGITUDE": 73.757328, "HT_LATITUDE": 15.548266, "HT_TRIP_ADVISOR_SCORE": 4.0, "SRML_STAR_RATING": 2.0, "HOTEL_NAME": "Hotel Cary's"}, "1004723": {"HT_HOTEL_ID": 1004723, "HT_LONGITUDE": 104.067742, "HT_LATITUDE": 30.630775, "HT_TRIP_ADVISOR_SCORE": 4.5, "SRML_STAR_RATING": 4.0, "HOTEL_NAME": "Ascott Raffles City Chengdu"}, "1004757": {"HT_HOTEL_ID": 1004757, "HT_LONGITUDE": 73.955089, "HT_LATITUDE": 15.138219, "HT_TRIP_ADVISOR_SCORE": 4.5, "SRML_STAR_RATING": 4.0, "HOTEL_NAME": "Mayfair Hideaway Spa Resort"}, "1004823": {"HT_HOTEL_ID": 1004823, "HT_LONGITUDE": 73.7593, "HT_LATITUDE": 15.5329, "HT_TRIP_ADVISOR_SCORE": 4.0, "SRML_STAR_RATING": 3.0, "HOTEL_NAME": "Hotel Goan Heritage"}, "1004811": {"HT_HOTEL_ID": 1004811, "HT_LONGITUDE": 73.893244, "HT_LATITUDE": 15.371739, "HT_TRIP_ADVISOR_SCORE": 3.0, "SRML_STAR_RATING": 3.0, "HOTEL_NAME": "The Queeny"}, "1004867": {"HT_HOTEL_ID": 1004867, "HT_LONGITUDE": 15.228351, "HT_LATITUDE": 52.730681, "HT_TRIP_ADVISOR_SCORE": 4.5, "SRML_STAR_RATING": 4.0, "HOTEL_NAME": "Qubus Hotel Gorz\u00f3w Wielkopolski"}, "1004887": {"HT_HOTEL_ID": 1004887, "HT_LONGITUDE": 6.145054, "HT_LATITUDE": 46.194233, "HT_TRIP_ADVISOR_SCORE": 4.5, "SRML_STAR_RATING": 4.0, "HOTEL_NAME": "La Cour Des Augustins - Boutique Gallery Design Hotel"}, "1004850": {"HT_HOTEL_ID": 1004850, "HT_LONGITUDE": 4.367827, "HT_LATITUDE": 50.822868, "HT_TRIP_ADVISOR_SCORE": 2.5, "SRML_STAR_RATING": 4.0, "HOTEL_NAME": "Brussels Hotel Belgium"}, "1004873": {"HT_HOTEL_ID": 1004873, "HT_LONGITUDE": 126.341382, "HT_LATITUDE": 33.464824, "HT_TRIP_ADVISOR_SCORE": 3.5, "SRML_STAR_RATING": 2.5, "HOTEL_NAME": "Sallys Jeju Hotel"}, "1004899": {"HT_HOTEL_ID": 1004899, "HT_LONGITUDE": 116.405785, "HT_LATITUDE": 39.94267, "HT_TRIP_ADVISOR_SCORE": 4.5, "SRML_STAR_RATING": 3.0, "HOTEL_NAME": "Nostalgia Hotel Beijing Yonghe Lama Temple"}, "1004926": {"HT_HOTEL_ID": 1004926, "HT_LONGITUDE": -73.702639, "HT_LATITUDE": 40.828952, "HT_TRIP_ADVISOR_SCORE": 4.5, "SRML_STAR_RATING": 4.0, "HOTEL_NAME": "Knickerbocker Yacht Hotel"}, "1005048": {"HT_HOTEL_ID": 1005048, "HT_LONGITUDE": 99.62617, "HT_LATITUDE": 11.468531, "HT_TRIP_ADVISOR_SCORE": 4.0, "SRML_STAR_RATING": 3.0, "HOTEL_NAME": "Rocky Point Resort"}, "1005012": {"HT_HOTEL_ID": 1005012, "HT_LONGITUDE": 4.354935, "HT_LATITUDE": 52.012762, "HT_TRIP_ADVISOR_SCORE": 4.0, "SRML_STAR_RATING": 4.0, "HOTEL_NAME": "Best Western Museumhotels Delft"}, "1005019": {"HT_HOTEL_ID": 1005019, "HT_LONGITUDE": 4.283265, "HT_LATITUDE": 52.093023, "HT_TRIP_ADVISOR_SCORE": 4.0, "SRML_STAR_RATING": 4.0, "HOTEL_NAME": "Hotel Novotel Den Haag World Forum"}, "1005135": {"HT_HOTEL_ID": 1005135, "HT_LONGITUDE": -80.235373, "HT_LATITUDE": 39.331998, "HT_TRIP_ADVISOR_SCORE": 4.0, "SRML_STAR_RATING": 2.0, "HOTEL_NAME": "Hawthorn Suites By Wyndham Bridgeport"}, "1005168": {"HT_HOTEL_ID": 1005168, "HT_LONGITUDE": 98.293155, "HT_LATITUDE": 7.887002, "HT_TRIP_ADVISOR_SCORE": 4.0, "SRML_STAR_RATING": 4.0, "HOTEL_NAME": "Patong Merlin Hotel"}, "1005175": {"HT_HOTEL_ID": 1005175, "HT_LONGITUDE": -96.126913, "HT_LATITUDE": 15.761558, "HT_TRIP_ADVISOR_SCORE": 4.5, "SRML_STAR_RATING": 4.0, "HOTEL_NAME": "Hotel Villablanca Huatulco"}, "1005176": {"HT_HOTEL_ID": 1005176, "HT_LONGITUDE": -96.089773, "HT_LATITUDE": 15.774227, "HT_TRIP_ADVISOR_SCORE": 3.0, "SRML_STAR_RATING": 3.0, "HOTEL_NAME": "Hotel Casa Del Mar"}, "1068942": {"HT_HOTEL_ID": 1068942, "HT_LONGITUDE": 100.566212, "HT_LATITUDE": 13.733895, "HT_TRIP_ADVISOR_SCORE": 4.0, "SRML_STAR_RATING": 3.0, "HOTEL_NAME": "S Box Sukhumvit Hotel"}, "1005256": {"HT_HOTEL_ID": 1005256, "HT_LONGITUDE": 1.31025, "HT_LATITUDE": 38.969556, "HT_TRIP_ADVISOR_SCORE": 4.0, "SRML_STAR_RATING": 3.0, "HOTEL_NAME": "Sm Hotel Puchet"}, "1005244": {"HT_HOTEL_ID": 1005244, "HT_LONGITUDE": 27.58052, "HT_LATITUDE": 47.166578, "HT_TRIP_ADVISOR_SCORE": 4.0, "SRML_STAR_RATING": 3.0, "HOTEL_NAME": "Unirea Hotel & Spa"}, "1005227": {"HT_HOTEL_ID": 1005227, "HT_LONGITUDE": 78.487093, "HT_LATITUDE": 17.424232, "HT_TRIP_ADVISOR_SCORE": 4.0, "SRML_STAR_RATING": 5.0, "HOTEL_NAME": "Hyderabad Marriott Hotel & Convention Centre"}, "1005287": {"HT_HOTEL_ID": 1005287, "HT_LONGITUDE": 1.510449, "HT_LATITUDE": 39.109775, "HT_TRIP_ADVISOR_SCORE": 4.0, "SRML_STAR_RATING": 3.0, "HOTEL_NAME": "Club Hotel Portinatx"}, "1005291": {"HT_HOTEL_ID": 1005291, "HT_LONGITUDE": 1.441672, "HT_LATITUDE": 39.07989, "HT_TRIP_ADVISOR_SCORE": 3.5, "SRML_STAR_RATING": 3.0, "HOTEL_NAME": "Hotel Club Cartago"}, "1005350": {"HT_HOTEL_ID": 1005350, "HT_LONGITUDE": -95.993896, "HT_LATITUDE": 36.152689, "HT_TRIP_ADVISOR_SCORE": 4.5, "SRML_STAR_RATING": 2.0, "HOTEL_NAME": "Hampton Inn & Suites Tulsa Downtown"}, "1005353": {"HT_HOTEL_ID": 1005353, "HT_LONGITUDE": 1.418847, "HT_LATITUDE": 38.899871, "HT_TRIP_ADVISOR_SCORE": 4.0, "SRML_STAR_RATING": 3.0, "HOTEL_NAME": "Apart-Hotel Jabeque Soul"}, "1005420": {"HT_HOTEL_ID": 1005420, "HT_LONGITUDE": -79.523487, "HT_LATITUDE": 8.98498, "HT_TRIP_ADVISOR_SCORE": 4.5, "SRML_STAR_RATING": 5.0, "HOTEL_NAME": "Global Hotel Panama"}, "1005374": {"HT_HOTEL_ID": 1005374, "HT_LONGITUDE": -75.15944, "HT_LATITUDE": 39.957996, "HT_TRIP_ADVISOR_SCORE": 3.5, "SRML_STAR_RATING": 2.0, "HOTEL_NAME": "Best Western Plus Philadelphia Convention Center Hotel"}, "1005506": {"HT_HOTEL_ID": 1005506, "HT_LONGITUDE": 115.262961, "HT_LATITUDE": -8.514289, "HT_TRIP_ADVISOR_SCORE": 5.0, "SRML_STAR_RATING": 3.0, "HOTEL_NAME": "Alaya Resort Jembawan"}, "1005485": {"HT_HOTEL_ID": 1005485, "HT_LONGITUDE": -74.578606, "HT_LATITUDE": 40.578544, "HT_TRIP_ADVISOR_SCORE": 5.0, "SRML_STAR_RATING": 2.0, "HOTEL_NAME": "Hampton Inn & Suites Bridgewater"}, "1005611": {"HT_HOTEL_ID": 1005611, "HT_LONGITUDE": 106.838313, "HT_LATITUDE": -6.223145, "HT_TRIP_ADVISOR_SCORE": 3.0, "SRML_STAR_RATING": 4.0, "HOTEL_NAME": "Puri Casablanca"}, "1005575": {"HT_HOTEL_ID": 1005575, "HT_LONGITUDE": 20.607051, "HT_LATITUDE": 38.308295, "HT_TRIP_ADVISOR_SCORE": 4.5, "SRML_STAR_RATING": 4.0, "HOTEL_NAME": "Kefalonia Bay Palace"}, "1005582": {"HT_HOTEL_ID": 1005582, "HT_LONGITUDE": -71.79365, "HT_LATITUDE": 42.262555, "HT_TRIP_ADVISOR_SCORE": 4.5, "SRML_STAR_RATING": 3.0, "HOTEL_NAME": "Homewood Suites By Hilton Worcester"}, "1005603": {"HT_HOTEL_ID": 1005603, "HT_LONGITUDE": 102.22449, "HT_LATITUDE": 2.22883, "HT_TRIP_ADVISOR_SCORE": 4.0, "SRML_STAR_RATING": 3.0, "HOTEL_NAME": "Grandview Hotel Melaka"}, "1005586": {"HT_HOTEL_ID": 1005586, "HT_LONGITUDE": 35.85726, "HT_LATITUDE": 31.99449, "HT_TRIP_ADVISOR_SCORE": 4.0, "SRML_STAR_RATING": 4.0, "HOTEL_NAME": "Tilal Al Madinah Hotel & Suites"}, "1005634": {"HT_HOTEL_ID": 1005634, "HT_LONGITUDE": -81.653456, "HT_LATITUDE": 30.312496, "HT_TRIP_ADVISOR_SCORE": 4.0, "SRML_STAR_RATING": 3.0, "HOTEL_NAME": "Homewood Suites By Hilton Jacksonville Downtown-Southbank"}, "1005671": {"HT_HOTEL_ID": 1005671, "HT_LONGITUDE": 39.109063, "HT_LATITUDE": 21.60355, "HT_TRIP_ADVISOR_SCORE": 4.5, "SRML_STAR_RATING": 5.0, "HOTEL_NAME": "Waldorf Astoria Jeddah - Qasr Al Sharq"}, "1005673": {"HT_HOTEL_ID": 1005673, "HT_LONGITUDE": 39.108583, "HT_LATITUDE": 21.614168, "HT_TRIP_ADVISOR_SCORE": 3.5, "SRML_STAR_RATING": 5.0, "HOTEL_NAME": "Sheraton Jeddah Hotel"}, "1005674": {"HT_HOTEL_ID": 1005674, "HT_LONGITUDE": 39.181583, "HT_LATITUDE": 21.51866, "HT_TRIP_ADVISOR_SCORE": 3.5, "SRML_STAR_RATING": 5.0, "HOTEL_NAME": "Radisson Blu Hotel, Jeddah"}, "1005688": {"HT_HOTEL_ID": 1005688, "HT_LONGITUDE": -3.368416, "HT_LATITUDE": 38.009727, "HT_TRIP_ADVISOR_SCORE": 4.0, "SRML_STAR_RATING": 3.0, "HOTEL_NAME": "Hotel Rosaleda De Don Pedro"}, "1005708": {"HT_HOTEL_ID": 1005708, "HT_LONGITUDE": 27.937881, "HT_LATITUDE": -26.152372, "HT_TRIP_ADVISOR_SCORE": 4.0, "SRML_STAR_RATING": 4.0, "HOTEL_NAME": "All Suite On 14Th"}, "1005740": {"HT_HOTEL_ID": 1005740, "HT_LONGITUDE": -88.059483, "HT_LATITUDE": 42.047592, "HT_TRIP_ADVISOR_SCORE": 4.5, "SRML_STAR_RATING": 3.0, "HOTEL_NAME": "Homewood Suites Chicago-Schaumburg"}, "1005854": {"HT_HOTEL_ID": 1005854, "HT_LONGITUDE": 126.638705, "HT_LATITUDE": 37.384549, "HT_TRIP_ADVISOR_SCORE": 3.5, "SRML_STAR_RATING": 4.0, "HOTEL_NAME": "Benikea Premier Songdo Bridge Hotel"}, "1005815": {"HT_HOTEL_ID": 1005815, "HT_LONGITUDE": -71.975177, "HT_LATITUDE": -13.523318, "HT_TRIP_ADVISOR_SCORE": 4.0, "SRML_STAR_RATING": 2.0, "HOTEL_NAME": "La Casa De Don Ignacio"}, "1005822": {"HT_HOTEL_ID": 1005822, "HT_LONGITUDE": -71.558679, "HT_LATITUDE": -33.022786, "HT_TRIP_ADVISOR_SCORE": 3.5, "SRML_STAR_RATING": 4.0, "HOTEL_NAME": "Gala Hotel Y Centro De Eventos"}, "1005827": {"HT_HOTEL_ID": 1005827, "HT_LONGITUDE": -83.57318, "HT_LATITUDE": 35.878861, "HT_TRIP_ADVISOR_SCORE": 3.0, "SRML_STAR_RATING": 2.0, "HOTEL_NAME": "Econo Lodge"}, "1005895": {"HT_HOTEL_ID": 1005895, "HT_LONGITUDE": 19.937642, "HT_LATITUDE": 50.059771, "HT_TRIP_ADVISOR_SCORE": 4.0, "SRML_STAR_RATING": 3.0, "HOTEL_NAME": "Rezydent Hotel"}, "1006013": {"HT_HOTEL_ID": 1006013, "HT_LONGITUDE": 174.663336, "HT_LATITUDE": -36.364482, "HT_TRIP_ADVISOR_SCORE": 5.0, "SRML_STAR_RATING": 4.0, "HOTEL_NAME": "Matakana Country Lodge"}, "1005920": {"HT_HOTEL_ID": 1005920, "HT_LONGITUDE": -2.610199, "HT_LATITUDE": 51.459053, "HT_TRIP_ADVISOR_SCORE": 3.5, "SRML_STAR_RATING": 3.0, "HOTEL_NAME": "Washington Hotel"}, "1005997": {"HT_HOTEL_ID": 1005997, "HT_LONGITUDE": -0.577038, "HT_LATITUDE": 38.196119, "HT_TRIP_ADVISOR_SCORE": 4.5, "SRML_STAR_RATING": 3.0, "HOTEL_NAME": "Hotel Gran Playa ***"}, "1005927": {"HT_HOTEL_ID": 1005927, "HT_LONGITUDE": 27.154556, "HT_LATITUDE": 36.876076, "HT_TRIP_ADVISOR_SCORE": 4.0, "SRML_STAR_RATING": 3.0, "HOTEL_NAME": "Summer Village Hotel"}, "1006040": {"HT_HOTEL_ID": 1006040, "HT_LONGITUDE": 2.146114, "HT_LATITUDE": 43.932829, "HT_TRIP_ADVISOR_SCORE": 4.0, "SRML_STAR_RATING": 4.0, "HOTEL_NAME": "Hotel Mercure Albi Bastides"}, "1006076": {"HT_HOTEL_ID": 1006076, "HT_LONGITUDE": 30.293932, "HT_LATITUDE": 59.944905, "HT_TRIP_ADVISOR_SCORE": 4.0, "SRML_STAR_RATING": 5.0, "HOTEL_NAME": "Solo Sokos Hotel Palace Bridge"}, "1006111": {"HT_HOTEL_ID": 1006111, "HT_LONGITUDE": -2.030993, "HT_LATITUDE": 36.85059, "HT_TRIP_ADVISOR_SCORE": 4.0, "SRML_STAR_RATING": 4.0, "HOTEL_NAME": "Hotel De Naturaleza Rodalquilar****Spa Cabo De Gata"}, "1006020": {"HT_HOTEL_ID": 1006020, "HT_LONGITUDE": -1.53131, "HT_LATITUDE": 53.791338, "HT_TRIP_ADVISOR_SCORE": 3.5, "SRML_STAR_RATING": 3.0, "HOTEL_NAME": "Holiday Inn Express"}, "1006117": {"HT_HOTEL_ID": 1006117, "HT_LONGITUDE": -2.446876, "HT_LATITUDE": 36.846401, "HT_TRIP_ADVISOR_SCORE": 4.0, "SRML_STAR_RATING": 4.0, "HOTEL_NAME": "Tryp Indalo Almer\u00eda"}, "1006133": {"HT_HOTEL_ID": 1006133, "HT_LONGITUDE": 12.476474, "HT_LATITUDE": 51.372561, "HT_TRIP_ADVISOR_SCORE": 3.5, "SRML_STAR_RATING": 2.0, "HOTEL_NAME": "Hotel Ibis Leipzig Nord Ost"}, "1006140": {"HT_HOTEL_ID": 1006140, "HT_LONGITUDE": 12.368709, "HT_LATITUDE": 51.404084, "HT_TRIP_ADVISOR_SCORE": 3.5, "SRML_STAR_RATING": 3.0, "HOTEL_NAME": "Achat Comfort Messe-Leipzig"}, "1006036": {"HT_HOTEL_ID": 1006036, "HT_LONGITUDE": -1.268464, "HT_LATITUDE": 51.720804, "HT_TRIP_ADVISOR_SCORE": 4.0, "SRML_STAR_RATING": 3.0, "HOTEL_NAME": "The Westwood Hotel"}, "1006256": {"HT_HOTEL_ID": 1006256, "HT_LONGITUDE": 3.218209, "HT_LATITUDE": 41.934026, "HT_TRIP_ADVISOR_SCORE": 4.0, "SRML_STAR_RATING": 4.0, "HOTEL_NAME": "Parador De Aiguablava"}, "1006228": {"HT_HOTEL_ID": 1006228, "HT_LONGITUDE": 3.072736, "HT_LATITUDE": 41.821107, "HT_TRIP_ADVISOR_SCORE": 4.0, "SRML_STAR_RATING": 3.0, "HOTEL_NAME": "Hotel Costa Brava"}, "1006229": {"HT_HOTEL_ID": 1006229, "HT_LONGITUDE": 3.186309, "HT_LATITUDE": 42.263431, "HT_TRIP_ADVISOR_SCORE": 4.0, "SRML_STAR_RATING": 2.0, "HOTEL_NAME": "Hotel Grecs"}, "1006259": {"HT_HOTEL_ID": 1006259, "HT_LONGITUDE": 127.140254, "HT_LATITUDE": 35.818686, "HT_TRIP_ADVISOR_SCORE": 3.5, "SRML_STAR_RATING": 3.0, "HOTEL_NAME": "Pungnam Tourist Hotel"}, "1006232": {"HT_HOTEL_ID": 1006232, "HT_LONGITUDE": 147.39958, "HT_LATITUDE": -19.582169, "HT_TRIP_ADVISOR_SCORE": 4.0, "SRML_STAR_RATING": 4.0, "HOTEL_NAME": "Ayr Traveller's Motel"}, "1006234": {"HT_HOTEL_ID": 1006234, "HT_LONGITUDE": 2.84904, "HT_LATITUDE": 41.704032, "HT_TRIP_ADVISOR_SCORE": 2.5, "SRML_STAR_RATING": 4.0, "HOTEL_NAME": "Clipper"}, "1006163": {"HT_HOTEL_ID": 1006163, "HT_LONGITUDE": -5.568198, "HT_LATITUDE": 42.590791, "HT_TRIP_ADVISOR_SCORE": 3.5, "SRML_STAR_RATING": 4.0, "HOTEL_NAME": "Hotel Silken Luis De Le\u00f3n"}, "1006186": {"HT_HOTEL_ID": 1006186, "HT_LONGITUDE": -84.414629, "HT_LATITUDE": 38.019143, "HT_TRIP_ADVISOR_SCORE": 4.0, "SRML_STAR_RATING": 4.0, "HOTEL_NAME": "Sleep Inn"}, "1006173": {"HT_HOTEL_ID": 1006173, "HT_LONGITUDE": -117.295518, "HT_LATITUDE": 33.656372, "HT_TRIP_ADVISOR_SCORE": 4.0, "SRML_STAR_RATING": 3.0, "HOTEL_NAME": "Best Western Plus Lake Elsinore Inn & Suites"}, "1006283": {"HT_HOTEL_ID": 1006283, "HT_LONGITUDE": 139.060858, "HT_LATITUDE": 37.911141, "HT_TRIP_ADVISOR_SCORE": 4.5, "SRML_STAR_RATING": 3.0, "HOTEL_NAME": "Hotel Mets Niigata"}, "1006317": {"HT_HOTEL_ID": 1006317, "HT_LONGITUDE": 136.564641, "HT_LATITUDE": 36.524876, "HT_TRIP_ADVISOR_SCORE": 3.5, "SRML_STAR_RATING": 4.0, "HOTEL_NAME": "Grand Hotel Hakusan (Formerly Grand Hotel Matto)"}, "1006346": {"HT_HOTEL_ID": 1006346, "HT_LONGITUDE": 7.642982, "HT_LATITUDE": 45.751409, "HT_TRIP_ADVISOR_SCORE": 4.0, "SRML_STAR_RATING": 4.0, "HOTEL_NAME": "Hotel Paradise"}, "1006352": {"HT_HOTEL_ID": 1006352, "HT_LONGITUDE": 101.15866, "HT_LATITUDE": 17.28109, "HT_TRIP_ADVISOR_SCORE": 4.5, "SRML_STAR_RATING": 4.0, "HOTEL_NAME": "Phunacome Resort"}, "1006273": {"HT_HOTEL_ID": 1006273, "HT_LONGITUDE": 3.141362, "HT_LATITUDE": 45.7867, "HT_TRIP_ADVISOR_SCORE": 3.0, "SRML_STAR_RATING": 2.0, "HOTEL_NAME": "B&B H\u00f4tel Clermont Ferrand Le Br\u00e9zet"}, "1006431": {"HT_HOTEL_ID": 1006431, "HT_LONGITUDE": -15.59482, "HT_LATITUDE": 27.737278, "HT_TRIP_ADVISOR_SCORE": 3.5, "SRML_STAR_RATING": 2.0, "HOTEL_NAME": "Apartamentos Oasis Maspalomas"}, "1006468": {"HT_HOTEL_ID": 1006468, "HT_LONGITUDE": -80.464997, "HT_LATITUDE": 25.074082, "HT_TRIP_ADVISOR_SCORE": 3.5, "SRML_STAR_RATING": 3.0, "HOTEL_NAME": "Playa Largo Resort & Spa"}, "1006390": {"HT_HOTEL_ID": 1006390, "HT_LONGITUDE": -0.172834, "HT_LATITUDE": 51.516603, "HT_TRIP_ADVISOR_SCORE": 2.0, "SRML_STAR_RATING": 2.0, "HOTEL_NAME": "Hyde Park Court"}, "1006450": {"HT_HOTEL_ID": 1006450, "HT_LONGITUDE": -15.427981, "HT_LATITUDE": 28.121165, "HT_TRIP_ADVISOR_SCORE": 4.0, "SRML_STAR_RATING": 5.0, "HOTEL_NAME": "Hotel Santa Catalina"}, "1006376": {"HT_HOTEL_ID": 1006376, "HT_LONGITUDE": -0.170615, "HT_LATITUDE": 51.516689, "HT_TRIP_ADVISOR_SCORE": 4.0, "SRML_STAR_RATING": 4.0, "HOTEL_NAME": "The Metropolis London Hyde Park"}, "1006460": {"HT_HOTEL_ID": 1006460, "HT_LONGITUDE": -15.545688, "HT_LATITUDE": 27.769199, "HT_TRIP_ADVISOR_SCORE": 3.5, "SRML_STAR_RATING": 3.0, "HOTEL_NAME": "Apartahotel Folias"}, "1006525": {"HT_HOTEL_ID": 1006525, "HT_LONGITUDE": -74.229182, "HT_LATITUDE": 40.964112, "HT_TRIP_ADVISOR_SCORE": 4.5, "SRML_STAR_RATING": 3.0, "HOTEL_NAME": "Hilton Garden Inn Wayne"}, "1006471": {"HT_HOTEL_ID": 1006471, "HT_LONGITUDE": -15.430669, "HT_LATITUDE": 28.143887, "HT_TRIP_ADVISOR_SCORE": 4.0, "SRML_STAR_RATING": 2.0, "HOTEL_NAME": "Hotel Pujol"}, "1006549": {"HT_HOTEL_ID": 1006549, "HT_LONGITUDE": 22.55785, "HT_LATITUDE": 51.247747, "HT_TRIP_ADVISOR_SCORE": 4.5, "SRML_STAR_RATING": 4.0, "HOTEL_NAME": "Ibb Grand Hotel Lublinianka, Hotel W Centrum Lublina"}, "1006512": {"HT_HOTEL_ID": 1006512, "HT_LONGITUDE": -112.073046, "HT_LATITUDE": 33.451666, "HT_TRIP_ADVISOR_SCORE": 4.5, "SRML_STAR_RATING": 4.0, "HOTEL_NAME": "The Westin Phoenix Downtown"}, "1006530": {"HT_HOTEL_ID": 1006530, "HT_LONGITUDE": -1.144901, "HT_LATITUDE": 46.154894, "HT_TRIP_ADVISOR_SCORE": 4.5, "SRML_STAR_RATING": 4.0, "HOTEL_NAME": "H\u00f4tel Best Western Masqhotel La Rochelle"}, "1006554": {"HT_HOTEL_ID": 1006554, "HT_LONGITUDE": 8.421396, "HT_LATITUDE": 47.029582, "HT_TRIP_ADVISOR_SCORE": 4.5, "SRML_STAR_RATING": 5.0, "HOTEL_NAME": "Park Weggis"}, "1006556": {"HT_HOTEL_ID": 1006556, "HT_LONGITUDE": 8.310148, "HT_LATITUDE": 47.054189, "HT_TRIP_ADVISOR_SCORE": 4.5, "SRML_STAR_RATING": 5.0, "HOTEL_NAME": "Hotel Schweizerhof Luzern"}, "1006534": {"HT_HOTEL_ID": 1006534, "HT_LONGITUDE": -1.156974, "HT_LATITUDE": 46.145548, "HT_TRIP_ADVISOR_SCORE": 3.0, "SRML_STAR_RATING": 2.0, "HOTEL_NAME": "S\u00e9jours & Affaires Les Minimes - La Rochelle"}, "1006700": {"HT_HOTEL_ID": 1006700, "HT_LONGITUDE": -3.685046, "HT_LATITUDE": 40.427518, "HT_TRIP_ADVISOR_SCORE": 4.0, "SRML_STAR_RATING": 4.0, "HOTEL_NAME": "Hotel Nh Madrid Lagasca"}, "1006602": {"HT_HOTEL_ID": 1006602, "HT_LONGITUDE": -6.097352, "HT_LATITUDE": 36.286536, "HT_TRIP_ADVISOR_SCORE": 4.0, "SRML_STAR_RATING": 3.0, "HOTEL_NAME": "Diufain"}, "1006577": {"HT_HOTEL_ID": 1006577, "HT_LONGITUDE": 28.282147, "HT_LATITUDE": -15.420461, "HT_TRIP_ADVISOR_SCORE": 3.5, "SRML_STAR_RATING": 3.0, "HOTEL_NAME": "Protea Hotel By Marriott\u00ae Lusaka Cairo Road"}, "1006581": {"HT_HOTEL_ID": 1006581, "HT_LONGITUDE": 121.51189, "HT_LATITUDE": 31.21957, "HT_TRIP_ADVISOR_SCORE": 4.0, "SRML_STAR_RATING": 2.0, "HOTEL_NAME": "Jinjiang Inn Shanghai Lujiazui"}, "1006607": {"HT_HOTEL_ID": 1006607, "HT_LONGITUDE": -6.084956, "HT_LATITUDE": 36.279573, "HT_TRIP_ADVISOR_SCORE": 3.0, "SRML_STAR_RATING": 2.0, "HOTEL_NAME": "Hotel Tres Jotas Conil"}, "1006689": {"HT_HOTEL_ID": 1006689, "HT_LONGITUDE": -3.768872, "HT_LATITUDE": 40.470876, "HT_TRIP_ADVISOR_SCORE": 4.0, "SRML_STAR_RATING": 4.0, "HOTEL_NAME": "Hotel Eurostars Zarzuela Park"}, "1006799": {"HT_HOTEL_ID": 1006799, "HT_LONGITUDE": 19.558508, "HT_LATITUDE": 42.933568, "HT_TRIP_ADVISOR_SCORE": 4.5, "SRML_STAR_RATING": 4.0, "HOTEL_NAME": "Hotel & Resort Gacka"}, "1006769": {"HT_HOTEL_ID": 1006769, "HT_LONGITUDE": -3.710736, "HT_LATITUDE": 40.408163, "HT_TRIP_ADVISOR_SCORE": 4.0, "SRML_STAR_RATING": 3.0, "HOTEL_NAME": "Hotel Ganivet"}, "1006807": {"HT_HOTEL_ID": 1006807, "HT_LONGITUDE": 4.17231, "HT_LATITUDE": 39.851367, "HT_TRIP_ADVISOR_SCORE": 3.5, "SRML_STAR_RATING": 3.0, "HOTEL_NAME": "Grupotel Mar De Menorca"}, "1006776": {"HT_HOTEL_ID": 1006776, "HT_LONGITUDE": -3.700571, "HT_LATITUDE": 40.245146, "HT_TRIP_ADVISOR_SCORE": 3.0, "SRML_STAR_RATING": 3.0, "HOTEL_NAME": "Hotel Mc Plaza De Santiago"}, "1006779": {"HT_HOTEL_ID": 1006779, "HT_LONGITUDE": -3.710657, "HT_LATITUDE": 40.42209, "HT_TRIP_ADVISOR_SCORE": 4.0, "SRML_STAR_RATING": 3.0, "HOTEL_NAME": "Exe Suites 33"}, "1006821": {"HT_HOTEL_ID": 1006821, "HT_LONGITUDE": -81.655369, "HT_LATITUDE": 28.350248, "HT_TRIP_ADVISOR_SCORE": 4.0, "SRML_STAR_RATING": 3.0, "HOTEL_NAME": "Liki Tiki Village By Diamond Resorts"}, "1006902": {"HT_HOTEL_ID": 1006902, "HT_LONGITUDE": 152.902815, "HT_LATITUDE": -26.698838, "HT_TRIP_ADVISOR_SCORE": 5.0, "SRML_STAR_RATING": 5.0, "HOTEL_NAME": "Spicers Clovelly Estate"}, "1006886": {"HT_HOTEL_ID": 1006886, "HT_LONGITUDE": 18.49305, "HT_LATITUDE": -33.82205, "HT_TRIP_ADVISOR_SCORE": 4.5, "SRML_STAR_RATING": 3.0, "HOTEL_NAME": "Table View Lodge"}, "1006908": {"HT_HOTEL_ID": 1006908, "HT_LONGITUDE": 152.865258, "HT_LATITUDE": -26.689523, "HT_TRIP_ADVISOR_SCORE": 5.0, "SRML_STAR_RATING": 5.0, "HOTEL_NAME": "Narrows Escape Rainforest Retreat"}, "1006868": {"HT_HOTEL_ID": 1006868, "HT_LONGITUDE": -81.473082, "HT_LATITUDE": 28.441488, "HT_TRIP_ADVISOR_SCORE": 4.5, "SRML_STAR_RATING": 4.0, "HOTEL_NAME": "Courtyard Orlando International Drive/Convention Center"}, "1006845": {"HT_HOTEL_ID": 1006845, "HT_LONGITUDE": -81.489756, "HT_LATITUDE": 28.34627, "HT_TRIP_ADVISOR_SCORE": 3.5, "SRML_STAR_RATING": 3.0, "HOTEL_NAME": "Holiday Inn Express & Suites Orlando - Lk Buena Vista South"}, "1006893": {"HT_HOTEL_ID": 1006893, "HT_LONGITUDE": 77.19844, "HT_LATITUDE": 28.648705, "HT_TRIP_ADVISOR_SCORE": 3.5, "SRML_STAR_RATING": 3.0, "HOTEL_NAME": "Hotel La Vista"}, "1006851": {"HT_HOTEL_ID": 1006851, "HT_LONGITUDE": -81.465524, "HT_LATITUDE": 28.45666, "HT_TRIP_ADVISOR_SCORE": 4.0, "SRML_STAR_RATING": 3.0, "HOTEL_NAME": "Westgate Palace"}, "1006987": {"HT_HOTEL_ID": 1006987, "HT_LONGITUDE": -57.542688, "HT_LATITUDE": -38.00175, "HT_TRIP_ADVISOR_SCORE": 2.5, "SRML_STAR_RATING": 4.0, "HOTEL_NAME": "Bristol Condominio Apart Hotel"}, "1007028": {"HT_HOTEL_ID": 1007028, "HT_LONGITUDE": -80.129838, "HT_LATITUDE": 25.794935, "HT_TRIP_ADVISOR_SCORE": 3.5, "SRML_STAR_RATING": 3.0, "HOTEL_NAME": "Dorchester Miami Beach Hotel & Suites"}, "1007031": {"HT_HOTEL_ID": 1007031, "HT_LONGITUDE": -80.278644, "HT_LATITUDE": 25.782193, "HT_TRIP_ADVISOR_SCORE": 4.0, "SRML_STAR_RATING": 4.0, "HOTEL_NAME": "Hilton Miami Airport"}, "1007033": {"HT_HOTEL_ID": 1007033, "HT_LONGITUDE": -80.255731, "HT_LATITUDE": 25.751942, "HT_TRIP_ADVISOR_SCORE": 4.0, "SRML_STAR_RATING": 4.0, "HOTEL_NAME": "Hyatt Regency Coral Gables"}, "1006933": {"HT_HOTEL_ID": 1006933, "HT_LONGITUDE": -99.1517, "HT_LATITUDE": 19.43689, "HT_TRIP_ADVISOR_SCORE": 3.5, "SRML_STAR_RATING": 3.0, "HOTEL_NAME": "Hotel New York"}, "1006940": {"HT_HOTEL_ID": 1006940, "HT_LONGITUDE": -99.205617, "HT_LATITUDE": 19.710432, "HT_TRIP_ADVISOR_SCORE": 3.5, "SRML_STAR_RATING": 4.0, "HOTEL_NAME": "Hotel City Express Tepotzotl\u00e1n"}, "1007019": {"HT_HOTEL_ID": 1007019, "HT_LONGITUDE": -80.132569, "HT_LATITUDE": 25.773116, "HT_TRIP_ADVISOR_SCORE": 4.5, "SRML_STAR_RATING": 3.0, "HOTEL_NAME": "Room Mate Lord Balfour Hotel"}, "1007025": {"HT_HOTEL_ID": 1007025, "HT_LONGITUDE": -80.32779, "HT_LATITUDE": 25.808456, "HT_TRIP_ADVISOR_SCORE": 4.0, "SRML_STAR_RATING": 3.0, "HOTEL_NAME": "Hyatt Place Miami Airport-West/Doral"}, "1007134": {"HT_HOTEL_ID": 1007134, "HT_LONGITUDE": -91.785773, "HT_LATITUDE": 43.304509, "HT_TRIP_ADVISOR_SCORE": 4.5, "SRML_STAR_RATING": 4.0, "HOTEL_NAME": "Hotel Winneshiek"}, "1007137": {"HT_HOTEL_ID": 1007137, "HT_LONGITUDE": -88.274691, "HT_LATITUDE": 42.680043, "HT_TRIP_ADVISOR_SCORE": 4.0, "SRML_STAR_RATING": 2.0, "HOTEL_NAME": "Hampton Inn Burlington"}, "1007220": {"HT_HOTEL_ID": 1007220, "HT_LONGITUDE": 10.772722, "HT_LATITUDE": 43.883244, "HT_TRIP_ADVISOR_SCORE": 4.5, "SRML_STAR_RATING": 4.0, "HOTEL_NAME": "Albergo Ercolini E Savi"}, "1007168": {"HT_HOTEL_ID": 1007168, "HT_LONGITUDE": -48.914566, "HT_LATITUDE": -20.722902, "HT_TRIP_ADVISOR_SCORE": 4.5, "SRML_STAR_RATING": 4.0, "HOTEL_NAME": "Thermas Park Resort & Spa"}, "1007224": {"HT_HOTEL_ID": 1007224, "HT_LONGITUDE": 10.776606, "HT_LATITUDE": 43.889511, "HT_TRIP_ADVISOR_SCORE": 3.5, "SRML_STAR_RATING": 5.0, "HOTEL_NAME": "Grand Bellavista Palace E Golf Hotel"}, "1007233": {"HT_HOTEL_ID": 1007233, "HT_LONGITUDE": 37.542788, "HT_LATITUDE": 55.794647, "HT_TRIP_ADVISOR_SCORE": 4.0, "SRML_STAR_RATING": 3.0, "HOTEL_NAME": "Aeropolis Hotel"}, "1007178": {"HT_HOTEL_ID": 1007178, "HT_LONGITUDE": -87.959558, "HT_LATITUDE": 42.569222, "HT_TRIP_ADVISOR_SCORE": 4.5, "SRML_STAR_RATING": 2.0, "HOTEL_NAME": "Hampton Inn & Suites Kenosha"}, "1007239": {"HT_HOTEL_ID": 1007239, "HT_LONGITUDE": 37.576158, "HT_LATITUDE": 55.845914, "HT_TRIP_ADVISOR_SCORE": 3.5, "SRML_STAR_RATING": 3.0, "HOTEL_NAME": "Sherston Hotel"}, "1007344": {"HT_HOTEL_ID": 1007344, "HT_LONGITUDE": 57.365575, "HT_LATITUDE": -20.298124, "HT_TRIP_ADVISOR_SCORE": 4.5, "SRML_STAR_RATING": 4.0, "HOTEL_NAME": "La Pirogue Resort & Spa, Mauritius"}, "1007337": {"HT_HOTEL_ID": 1007337, "HT_LONGITUDE": 57.46807, "HT_LATITUDE": -20.491611, "HT_TRIP_ADVISOR_SCORE": 4.5, "SRML_STAR_RATING": 5.0, "HOTEL_NAME": "Hotel Shanti Maurice A Nira Resort"}, "1007278": {"HT_HOTEL_ID": 1007278, "HT_LONGITUDE": 121.926064, "HT_LATITUDE": 11.959219, "HT_TRIP_ADVISOR_SCORE": 4.0, "SRML_STAR_RATING": 3.0, "HOTEL_NAME": "Le Soleil De Boracay"}, "1007329": {"HT_HOTEL_ID": 1007329, "HT_LONGITUDE": 5.367887, "HT_LATITUDE": 43.308579, "HT_TRIP_ADVISOR_SCORE": 4.0, "SRML_STAR_RATING": 4.0, "HOTEL_NAME": "Hotel Novotel Suites Marseille Centre Euromed"}, "1007268": {"HT_HOTEL_ID": 1007268, "HT_LONGITUDE": 37.416279, "HT_LATITUDE": 55.962234, "HT_TRIP_ADVISOR_SCORE": 4.0, "SRML_STAR_RATING": 4.0, "HOTEL_NAME": "Novotel Moscow Sheremetyevo Airport"}, "1007270": {"HT_HOTEL_ID": 1007270, "HT_LONGITUDE": 37.571772, "HT_LATITUDE": 55.704478, "HT_TRIP_ADVISOR_SCORE": 3.0, "SRML_STAR_RATING": 3.0, "HOTEL_NAME": "Sputnik"}, "1007380": {"HT_HOTEL_ID": 1007380, "HT_LONGITUDE": -121.899389, "HT_LATITUDE": 36.587714, "HT_TRIP_ADVISOR_SCORE": 4.0, "SRML_STAR_RATING": 2.0, "HOTEL_NAME": "Comfort Inn Monterey By The Sea"}, "1007387": {"HT_HOTEL_ID": 1007387, "HT_LONGITUDE": -120.674838, "HT_LATITUDE": 35.259161, "HT_TRIP_ADVISOR_SCORE": 4.0, "SRML_STAR_RATING": 3.0, "HOTEL_NAME": "Embassy Suites By Hilton San Luis Obispo"}, "1007406": {"HT_HOTEL_ID": 1007406, "HT_LONGITUDE": -114.036621, "HT_LATITUDE": 46.911344, "HT_TRIP_ADVISOR_SCORE": 3.5, "SRML_STAR_RATING": 2.0, "HOTEL_NAME": "Econo Lodge"}, "1007371": {"HT_HOTEL_ID": 1007371, "HT_LONGITUDE": -121.856412, "HT_LATITUDE": 36.606743, "HT_TRIP_ADVISOR_SCORE": 3.5, "SRML_STAR_RATING": 3.0, "HOTEL_NAME": "Embassy Suites By Hilton Monterey Bay Seaside"}, "1007372": {"HT_HOTEL_ID": 1007372, "HT_LONGITUDE": -120.458677, "HT_LATITUDE": 34.655886, "HT_TRIP_ADVISOR_SCORE": 4.0, "SRML_STAR_RATING": 3.0, "HOTEL_NAME": "Embassy Suites By Hilton Lompoc Central Coast"}, "1007398": {"HT_HOTEL_ID": 1007398, "HT_LONGITUDE": -89.394404, "HT_LATITUDE": 43.071773, "HT_TRIP_ADVISOR_SCORE": 4.5, "SRML_STAR_RATING": 3.0, "HOTEL_NAME": "Doubletree By Hilton Hotel Madison"}, "1007630": {"HT_HOTEL_ID": 1007630, "HT_LONGITUDE": -1.681784, "HT_LATITUDE": 54.963055, "HT_TRIP_ADVISOR_SCORE": 4.0, "SRML_STAR_RATING": 3.0, "HOTEL_NAME": "Holiday Inn Express Newcastle - Metro Centre"}, "1007525": {"HT_HOTEL_ID": 1007525, "HT_LONGITUDE": -35.182155, "HT_LATITUDE": -5.831649, "HT_TRIP_ADVISOR_SCORE": 4.0, "SRML_STAR_RATING": 4.0, "HOTEL_NAME": "Esuites Vila Do Mar"}, "1007529": {"HT_HOTEL_ID": 1007529, "HT_LONGITUDE": 25.370564, "HT_LATITUDE": 37.026514, "HT_TRIP_ADVISOR_SCORE": 4.0, "SRML_STAR_RATING": 3.0, "HOTEL_NAME": "Mikri Vigla Hotel"}, "1007539": {"HT_HOTEL_ID": 1007539, "HT_LONGITUDE": 25.375612, "HT_LATITUDE": 37.095019, "HT_TRIP_ADVISOR_SCORE": 4.0, "SRML_STAR_RATING": 3.0, "HOTEL_NAME": "Alkyoni Beach Hotel"}, "1007544": {"HT_HOTEL_ID": 1007544, "HT_LONGITUDE": 82.899592, "HT_LATITUDE": 55.032783, "HT_TRIP_ADVISOR_SCORE": 4.5, "SRML_STAR_RATING": 4.0, "HOTEL_NAME": "Park Inn By Radisson Novosibirsk"}, "1007570": {"HT_HOTEL_ID": 1007570, "HT_LONGITUDE": 7.26502, "HT_LATITUDE": 43.703941, "HT_TRIP_ADVISOR_SCORE": 3.5, "SRML_STAR_RATING": 2.0, "HOTEL_NAME": "Amaryllis H\u00f4tel"}, "1007546": {"HT_HOTEL_ID": 1007546, "HT_LONGITUDE": -2.21372, "HT_LATITUDE": 47.274907, "HT_TRIP_ADVISOR_SCORE": 3.5, "SRML_STAR_RATING": 2.0, "HOTEL_NAME": "H\u00f4tel Le Bretagne"}, "1007511": {"HT_HOTEL_ID": 1007511, "HT_LONGITUDE": 74.870172, "HT_LATITUDE": 31.642312, "HT_TRIP_ADVISOR_SCORE": 3.5, "SRML_STAR_RATING": 4.0, "HOTEL_NAME": "The Fern Residency, Amritsar"}, "1007695": {"HT_HOTEL_ID": 1007695, "HT_LONGITUDE": 116.372444, "HT_LATITUDE": 39.841953, "HT_TRIP_ADVISOR_SCORE": 4.0, "SRML_STAR_RATING": 2.0, "HOTEL_NAME": "Jinjiang Inn - Beijing Majiapu Inn"}, "1007754": {"HT_HOTEL_ID": 1007754, "HT_LONGITUDE": 120.398894, "HT_LATITUDE": 36.295651, "HT_TRIP_ADVISOR_SCORE": 4.0, "SRML_STAR_RATING": 4.0, "HOTEL_NAME": "Hotel Four Points By Sheraton Qingdao, Chengyang"}, "1007768": {"HT_HOTEL_ID": 1007768, "HT_LONGITUDE": -86.817001, "HT_LATITUDE": 36.109423, "HT_TRIP_ADVISOR_SCORE": 4.5, "SRML_STAR_RATING": 3.0, "HOTEL_NAME": "Hampton Inn & Suites Nashville-Green Hills"}, "1007784": {"HT_HOTEL_ID": 1007784, "HT_LONGITUDE": 6.630153, "HT_LATITUDE": 46.508054, "HT_TRIP_ADVISOR_SCORE": 4.5, "SRML_STAR_RATING": 5.0, "HOTEL_NAME": "Beau-Rivage Palace"}, "1007760": {"HT_HOTEL_ID": 1007760, "HT_LONGITUDE": -86.687541, "HT_LATITUDE": 36.144836, "HT_TRIP_ADVISOR_SCORE": 3.5, "SRML_STAR_RATING": 3.0, "HOTEL_NAME": "Embassy Suites By Hilton Nashville Airport"}, "1007762": {"HT_HOTEL_ID": 1007762, "HT_LONGITUDE": -86.813584, "HT_LATITUDE": 35.944608, "HT_TRIP_ADVISOR_SCORE": 4.0, "SRML_STAR_RATING": 3.0, "HOTEL_NAME": "Embassy Suites By Hilton Nashville South Cool Springs"}, "1007832": {"HT_HOTEL_ID": 1007832, "HT_LONGITUDE": 1.280554, "HT_LATITUDE": 52.619393, "HT_TRIP_ADVISOR_SCORE": 3.5, "SRML_STAR_RATING": 3.0, "HOTEL_NAME": "Best Western George Hotel"}, "1007873": {"HT_HOTEL_ID": 1007873, "HT_LONGITUDE": -96.108336, "HT_LATITUDE": 41.18158, "HT_TRIP_ADVISOR_SCORE": 4.5, "SRML_STAR_RATING": 4.0, "HOTEL_NAME": "Embassy Suites By Hilton Omaha La Vista Hotel & Conference Center"}, "1007804": {"HT_HOTEL_ID": 1007804, "HT_LONGITUDE": -8.04535, "HT_LATITUDE": 31.558829, "HT_TRIP_ADVISOR_SCORE": 5.0, "SRML_STAR_RATING": 5.0, "HOTEL_NAME": "Sirayane Boutique Hotel & Spa"}, "1007806": {"HT_HOTEL_ID": 1007806, "HT_LONGITUDE": -75.303808, "HT_LATITUDE": 39.867431, "HT_TRIP_ADVISOR_SCORE": 3.5, "SRML_STAR_RATING": 3.0, "HOTEL_NAME": "Wyndham Garden Hotel Philadelphia Airport"}, "1007991": {"HT_HOTEL_ID": 1007991, "HT_LONGITUDE": -8.630654, "HT_LATITUDE": 41.154823, "HT_TRIP_ADVISOR_SCORE": 4.0, "SRML_STAR_RATING": 4.0, "HOTEL_NAME": "Hotel Hf F\u00e9nix Porto"}, "1007993": {"HT_HOTEL_ID": 1007993, "HT_LONGITUDE": -8.583127, "HT_LATITUDE": 41.164706, "HT_TRIP_ADVISOR_SCORE": 4.0, "SRML_STAR_RATING": 4.0, "HOTEL_NAME": "Ac Hotel Porto"}, "1007932": {"HT_HOTEL_ID": 1007932, "HT_LONGITUDE": 153.428735, "HT_LATITUDE": -27.99268, "HT_TRIP_ADVISOR_SCORE": 4.0, "SRML_STAR_RATING": 4.5, "HOTEL_NAME": "Mantra Sun City"}, "1007935": {"HT_HOTEL_ID": 1007935, "HT_LONGITUDE": 153.542629, "HT_LATITUDE": -28.16803, "HT_TRIP_ADVISOR_SCORE": 4.5, "SRML_STAR_RATING": 4.5, "HOTEL_NAME": "Reflection On The Sea"}, "1007973": {"HT_HOTEL_ID": 1007973, "HT_LONGITUDE": -8.538597, "HT_LATITUDE": 40.922154, "HT_TRIP_ADVISOR_SCORE": 2.5, "SRML_STAR_RATING": 3.0, "HOTEL_NAME": "Inatel Santa Maria Da Feira"}, "1007976": {"HT_HOTEL_ID": 1007976, "HT_LONGITUDE": -8.29163, "HT_LATITUDE": 41.101506, "HT_TRIP_ADVISOR_SCORE": 4.0, "SRML_STAR_RATING": 3.0, "HOTEL_NAME": "Inatel Entre-Os-Rios"}, "1008036": {"HT_HOTEL_ID": 1008036, "HT_LONGITUDE": -97.754155, "HT_LATITUDE": 30.20979, "HT_TRIP_ADVISOR_SCORE": 4.0, "SRML_STAR_RATING": 2.0, "HOTEL_NAME": "Fairfield Inn & Suites"}, "1008057": {"HT_HOTEL_ID": 1008057, "HT_LONGITUDE": -5.846808, "HT_LATITUDE": 43.362108, "HT_TRIP_ADVISOR_SCORE": 4.0, "SRML_STAR_RATING": 4.0, "HOTEL_NAME": "Hotel Nh Oviedo Principado"}, "1008020": {"HT_HOTEL_ID": 1008020, "HT_LONGITUDE": -87.999805, "HT_LATITUDE": 42.138318, "HT_TRIP_ADVISOR_SCORE": 4.0, "SRML_STAR_RATING": 3.0, "HOTEL_NAME": "Days Inn & Suites Arlington Heights"}, "1008021": {"HT_HOTEL_ID": 1008021, "HT_LONGITUDE": -87.952733, "HT_LATITUDE": 42.385274, "HT_TRIP_ADVISOR_SCORE": 4.0, "SRML_STAR_RATING": 2.0, "HOTEL_NAME": "Comfort Inn"}, "1008022": {"HT_HOTEL_ID": 1008022, "HT_LONGITUDE": 28.650609, "HT_LATITUDE": 44.178353, "HT_TRIP_ADVISOR_SCORE": 2.5, "SRML_STAR_RATING": 3.0, "HOTEL_NAME": "Hotel Class"}, "1008007": {"HT_HOTEL_ID": 1008007, "HT_LONGITUDE": -79.375798, "HT_LATITUDE": 44.606157, "HT_TRIP_ADVISOR_SCORE": 4.0, "SRML_STAR_RATING": 3.0, "HOTEL_NAME": "Best Western Plus Couchiching Inn"}, "1008025": {"HT_HOTEL_ID": 1008025, "HT_LONGITUDE": -87.840638, "HT_LATITUDE": 41.983349, "HT_TRIP_ADVISOR_SCORE": 4.0, "SRML_STAR_RATING": 4.0, "HOTEL_NAME": "Renaissance Chicago O'hare Suites Hotel"}, "1008046": {"HT_HOTEL_ID": 1008046, "HT_LONGITUDE": 55.315374, "HT_LATITUDE": 25.274525, "HT_TRIP_ADVISOR_SCORE": 3.0, "SRML_STAR_RATING": 3.0, "HOTEL_NAME": "Fortune Hotel Deira"}, "1008012": {"HT_HOTEL_ID": 1008012, "HT_LONGITUDE": 15.204505, "HT_LATITUDE": 59.296287, "HT_TRIP_ADVISOR_SCORE": 3.5, "SRML_STAR_RATING": 3.0, "HOTEL_NAME": "Quality Hotel Orebro"}, "1008109": {"HT_HOTEL_ID": 1008109, "HT_LONGITUDE": -1.206396, "HT_LATITUDE": 51.715347, "HT_TRIP_ADVISOR_SCORE": 3.5, "SRML_STAR_RATING": 3.0, "HOTEL_NAME": "Holiday Inn Express Oxford - Kassam Stadium"}, "1008127": {"HT_HOTEL_ID": 1008127, "HT_LONGITUDE": 32.442205, "HT_LATITUDE": 34.99211, "HT_TRIP_ADVISOR_SCORE": 4.5, "SRML_STAR_RATING": 3.0, "HOTEL_NAME": "Leonidas Village Houses"}, "1008110": {"HT_HOTEL_ID": 1008110, "HT_LONGITUDE": -1.283541, "HT_LATITUDE": 51.795423, "HT_TRIP_ADVISOR_SCORE": 4.0, "SRML_STAR_RATING": 4.0, "HOTEL_NAME": "Holiday Inn"}, "1008115": {"HT_HOTEL_ID": 1008115, "HT_LONGITUDE": 32.406089, "HT_LATITUDE": 34.772207, "HT_TRIP_ADVISOR_SCORE": 4.5, "SRML_STAR_RATING": 5.0, "HOTEL_NAME": "Elysium Hotel"}, "1008141": {"HT_HOTEL_ID": 1008141, "HT_LONGITUDE": 32.37495, "HT_LATITUDE": 34.854497, "HT_TRIP_ADVISOR_SCORE": 3.5, "SRML_STAR_RATING": 4.0, "HOTEL_NAME": "Crown Resorts Horizon Hotel"}, "1008253": {"HT_HOTEL_ID": 1008253, "HT_LONGITUDE": 2.374606, "HT_LATITUDE": 48.855409, "HT_TRIP_ADVISOR_SCORE": 4.0, "SRML_STAR_RATING": 3.0, "HOTEL_NAME": "Standard Design Hotel ***"}, "1008226": {"HT_HOTEL_ID": 1008226, "HT_LONGITUDE": 2.348868, "HT_LATITUDE": 48.876442, "HT_TRIP_ADVISOR_SCORE": 3.5, "SRML_STAR_RATING": 2.0, "HOTEL_NAME": "Comfort Hotel Paris La Fayette - 3 \u00c9toiles"}, "1008185": {"HT_HOTEL_ID": 1008185, "HT_LONGITUDE": -4.780074, "HT_LATITUDE": 41.913724, "HT_TRIP_ADVISOR_SCORE": 4.0, "SRML_STAR_RATING": 4.0, "HOTEL_NAME": "Posada Real La Casa Del Abad"}, "1008211": {"HT_HOTEL_ID": 1008211, "HT_LONGITUDE": -77.396274, "HT_LATITUDE": 37.35441, "HT_TRIP_ADVISOR_SCORE": 3.0, "SRML_STAR_RATING": 2.0, "HOTEL_NAME": "Quality Inn"}, "1008333": {"HT_HOTEL_ID": 1008333, "HT_LONGITUDE": 2.35175, "HT_LATITUDE": 48.84764, "HT_TRIP_ADVISOR_SCORE": 4.0, "SRML_STAR_RATING": 3.0, "HOTEL_NAME": "Quartier Latin Hotel"}, "1008258": {"HT_HOTEL_ID": 1008258, "HT_LONGITUDE": -87.867643, "HT_LATITUDE": 42.720439, "HT_TRIP_ADVISOR_SCORE": 4.0, "SRML_STAR_RATING": 2.0, "HOTEL_NAME": "Comfort Inn"}, "1008376": {"HT_HOTEL_ID": 1008376, "HT_LONGITUDE": 2.321261, "HT_LATITUDE": 48.844994, "HT_TRIP_ADVISOR_SCORE": 3.5, "SRML_STAR_RATING": 3.0, "HOTEL_NAME": "Best Western Hotel Le Montparnasse"}, "1008300": {"HT_HOTEL_ID": 1008300, "HT_LONGITUDE": 2.361713, "HT_LATITUDE": 48.868334, "HT_TRIP_ADVISOR_SCORE": 3.5, "SRML_STAR_RATING": 3.0, "HOTEL_NAME": "Hotel Paix Republique Paris"}, "1008347": {"HT_HOTEL_ID": 1008347, "HT_LONGITUDE": 5.375983, "HT_LATITUDE": 43.264581, "HT_TRIP_ADVISOR_SCORE": 3.5, "SRML_STAR_RATING": 3.0, "HOTEL_NAME": "Adagio Aparthotel Marseille Prado Plage"}, "1008392": {"HT_HOTEL_ID": 1008392, "HT_LONGITUDE": 30.537881, "HT_LATITUDE": 36.592113, "HT_TRIP_ADVISOR_SCORE": 4.0, "SRML_STAR_RATING": 4.0, "HOTEL_NAME": "Erendiz Kemer Resort Hotel"}, "1008278": {"HT_HOTEL_ID": 1008278, "HT_LONGITUDE": -115.039019, "HT_LATITUDE": 36.057967, "HT_TRIP_ADVISOR_SCORE": 2.0, "SRML_STAR_RATING": 3.0, "HOTEL_NAME": "Holiday Inn Express & Suites Henderson"}, "1008279": {"HT_HOTEL_ID": 1008279, "HT_LONGITUDE": 2.365791, "HT_LATITUDE": 48.867976, "HT_TRIP_ADVISOR_SCORE": 2.0, "SRML_STAR_RATING": 2.0, "HOTEL_NAME": "Hibiscus Hotel"}, "1008322": {"HT_HOTEL_ID": 1008322, "HT_LONGITUDE": 2.302747, "HT_LATITUDE": 48.869094, "HT_TRIP_ADVISOR_SCORE": 4.5, "SRML_STAR_RATING": 4.0, "HOTEL_NAME": "Hotel Chateau Frontenac"}, "1008462": {"HT_HOTEL_ID": 1008462, "HT_LONGITUDE": -76.498283, "HT_LATITUDE": 37.114601, "HT_TRIP_ADVISOR_SCORE": 4.0, "SRML_STAR_RATING": 2.0, "HOTEL_NAME": "Comfort Inn"}, "1008494": {"HT_HOTEL_ID": 1008494, "HT_LONGITUDE": -87.009911, "HT_LATITUDE": 20.705042, "HT_TRIP_ADVISOR_SCORE": 4.5, "SRML_STAR_RATING": 5.0, "HOTEL_NAME": "Hacienda Tres Rios"}, "1008427": {"HT_HOTEL_ID": 1008427, "HT_LONGITUDE": 2.281327, "HT_LATITUDE": 48.831255, "HT_TRIP_ADVISOR_SCORE": 3.5, "SRML_STAR_RATING": 4.0, "HOTEL_NAME": "Aparthotel Adagio Porte De Versailles"}, "1008411": {"HT_HOTEL_ID": 1008411, "HT_LONGITUDE": 2.308993, "HT_LATITUDE": 48.866676, "HT_TRIP_ADVISOR_SCORE": 4.5, "SRML_STAR_RATING": 5.0, "HOTEL_NAME": "Hotel La Maison Champs Elys\u00e9es"}, "1008513": {"HT_HOTEL_ID": 1008513, "HT_LONGITUDE": 16.354426, "HT_LATITUDE": 48.191631, "HT_TRIP_ADVISOR_SCORE": 3.5, "SRML_STAR_RATING": 4.0, "HOTEL_NAME": "Austria Trend Hotel Ananas"}, "1008498": {"HT_HOTEL_ID": 1008498, "HT_LONGITUDE": 34.5, "HT_LATITUDE": 28.47955, "HT_TRIP_ADVISOR_SCORE": 4.5, "SRML_STAR_RATING": 3.0, "HOTEL_NAME": "Ibis Styles Dahab Lagoon"}, "1008558": {"HT_HOTEL_ID": 1008558, "HT_LONGITUDE": 35.44358, "HT_LATITUDE": -22.13229, "HT_TRIP_ADVISOR_SCORE": 4.5, "SRML_STAR_RATING": 5.0, "HOTEL_NAME": "Dugong Beach Lodge"}, "1008562": {"HT_HOTEL_ID": 1008562, "HT_LONGITUDE": -122.477624, "HT_LATITUDE": 45.53622, "HT_TRIP_ADVISOR_SCORE": 3.5, "SRML_STAR_RATING": 3.0, "HOTEL_NAME": "Four Points By Sheraton Portland East"}, "1008577": {"HT_HOTEL_ID": 1008577, "HT_LONGITUDE": -122.572249, "HT_LATITUDE": 45.579859, "HT_TRIP_ADVISOR_SCORE": 4.0, "SRML_STAR_RATING": 3.0, "HOTEL_NAME": "Embassy Suites By Hilton Portland Airport"}, "1008601": {"HT_HOTEL_ID": 1008601, "HT_LONGITUDE": -89.800343, "HT_LATITUDE": 43.624987, "HT_TRIP_ADVISOR_SCORE": 3.5, "SRML_STAR_RATING": 2.0, "HOTEL_NAME": "Baymont Inn & Suites Wisconsin Dells"}, "1008619": {"HT_HOTEL_ID": 1008619, "HT_LONGITUDE": 12.657997, "HT_LATITUDE": 44.001886, "HT_TRIP_ADVISOR_SCORE": 4.0, "SRML_STAR_RATING": 4.0, "HOTEL_NAME": "Hotel President"}, "1008608": {"HT_HOTEL_ID": 1008608, "HT_LONGITUDE": 31.391032, "HT_LATITUDE": 36.777382, "HT_TRIP_ADVISOR_SCORE": 3.5, "SRML_STAR_RATING": 3.0, "HOTEL_NAME": "Sun Beach Hotel"}, "1008662": {"HT_HOTEL_ID": 1008662, "HT_LONGITUDE": 21.622145, "HT_LATITUDE": 37.659668, "HT_TRIP_ADVISOR_SCORE": 3.5, "SRML_STAR_RATING": 4.0, "HOTEL_NAME": "Hotel Amalia Olympia"}, "1008718": {"HT_HOTEL_ID": 1008718, "HT_LONGITUDE": 115.73541, "HT_LATITUDE": -31.785321, "HT_TRIP_ADVISOR_SCORE": 3.5, "SRML_STAR_RATING": 4.0, "HOTEL_NAME": "Clarion Suites Mullaloo Beach"}, "1008724": {"HT_HOTEL_ID": 1008724, "HT_LONGITUDE": 115.876945, "HT_LATITUDE": -31.953931, "HT_TRIP_ADVISOR_SCORE": 3.5, "SRML_STAR_RATING": 4.0, "HOTEL_NAME": "Regal Apartments"}, "1008727": {"HT_HOTEL_ID": 1008727, "HT_LONGITUDE": 115.856565, "HT_LATITUDE": -31.952368, "HT_TRIP_ADVISOR_SCORE": 4.0, "SRML_STAR_RATING": 4.0, "HOTEL_NAME": "Mantra On Murray"}, "1008678": {"HT_HOTEL_ID": 1008678, "HT_LONGITUDE": 22.856448, "HT_LATITUDE": 37.517525, "HT_TRIP_ADVISOR_SCORE": 4.5, "SRML_STAR_RATING": 4.0, "HOTEL_NAME": "John & George"}, "1008771": {"HT_HOTEL_ID": 1008771, "HT_LONGITUDE": -0.884848, "HT_LATITUDE": 41.655483, "HT_TRIP_ADVISOR_SCORE": 3.0, "SRML_STAR_RATING": 2.0, "HOTEL_NAME": "Hotel Par\u00eds Centro"}, "1008753": {"HT_HOTEL_ID": 1008753, "HT_LONGITUDE": -87.071624, "HT_LATITUDE": 20.626592, "HT_TRIP_ADVISOR_SCORE": 3.5, "SRML_STAR_RATING": 2.0, "HOTEL_NAME": "Hotel Plaza Phocea"}, "1009003": {"HT_HOTEL_ID": 1009003, "HT_LONGITUDE": 3.257982, "HT_LATITUDE": 39.408256, "HT_TRIP_ADVISOR_SCORE": 3.5, "SRML_STAR_RATING": 3.0, "HOTEL_NAME": "Ola Aparthotel Cecilia"}, "1009009": {"HT_HOTEL_ID": 1009009, "HT_LONGITUDE": -103.576537, "HT_LATITUDE": 43.926328, "HT_TRIP_ADVISOR_SCORE": 4.0, "SRML_STAR_RATING": 2.0, "HOTEL_NAME": "Quality Inn"}, "1008942": {"HT_HOTEL_ID": 1008942, "HT_LONGITUDE": 2.538212, "HT_LATITUDE": 39.511731, "HT_TRIP_ADVISOR_SCORE": 3.0, "SRML_STAR_RATING": 1.0, "HOTEL_NAME": "Hotel Teix"}, "1009075": {"HT_HOTEL_ID": 1009075, "HT_LONGITUDE": 104.92858, "HT_LATITUDE": 11.535781, "HT_TRIP_ADVISOR_SCORE": 3.5, "SRML_STAR_RATING": 3.0, "HOTEL_NAME": "Tai Ming Hotel"}, "1009091": {"HT_HOTEL_ID": 1009091, "HT_LONGITUDE": 104.919957, "HT_LATITUDE": 11.581184, "HT_TRIP_ADVISOR_SCORE": 3.5, "SRML_STAR_RATING": 3.0, "HOTEL_NAME": "Cara Hotel"}, "1009020": {"HT_HOTEL_ID": 1009020, "HT_LONGITUDE": 3.381192, "HT_LATITUDE": 39.596992, "HT_TRIP_ADVISOR_SCORE": 4.5, "SRML_STAR_RATING": 4.0, "HOTEL_NAME": "Hipotels Said"}, "1009178": {"HT_HOTEL_ID": 1009178, "HT_LONGITUDE": 115.183735, "HT_LATITUDE": -8.709283, "HT_TRIP_ADVISOR_SCORE": 3.5, "SRML_STAR_RATING": 3.0, "HOTEL_NAME": "Losari Sunset Hotel"}, "1009146": {"HT_HOTEL_ID": 1009146, "HT_LONGITUDE": 73.841503, "HT_LATITUDE": 18.523999, "HT_TRIP_ADVISOR_SCORE": 3.0, "SRML_STAR_RATING": 3.0, "HOTEL_NAME": "Hotel Ashish Plaza"}, "1009134": {"HT_HOTEL_ID": 1009134, "HT_LONGITUDE": 80.623974, "HT_LATITUDE": 7.305721, "HT_TRIP_ADVISOR_SCORE": 4.0, "SRML_STAR_RATING": 4.0, "HOTEL_NAME": "Cinnamon Citadel"}, "1009212": {"HT_HOTEL_ID": 1009212, "HT_LONGITUDE": 98.293798, "HT_LATITUDE": 7.846944, "HT_TRIP_ADVISOR_SCORE": 3.5, "SRML_STAR_RATING": 4.0, "HOTEL_NAME": "Ramada Phuket Southsea"}, "1009216": {"HT_HOTEL_ID": 1009216, "HT_LONGITUDE": 10.40055, "HT_LATITUDE": 43.709103, "HT_TRIP_ADVISOR_SCORE": 3.0, "SRML_STAR_RATING": 3.0, "HOTEL_NAME": "Hotel Terminus Plaza"}, "1009219": {"HT_HOTEL_ID": 1009219, "HT_LONGITUDE": 10.399128, "HT_LATITUDE": 43.720721, "HT_TRIP_ADVISOR_SCORE": 3.5, "SRML_STAR_RATING": 5.0, "HOTEL_NAME": "Hotel Relais Dell'orologio"}, "1009251": {"HT_HOTEL_ID": 1009251, "HT_LONGITUDE": -116.542835, "HT_LATITUDE": 33.823543, "HT_TRIP_ADVISOR_SCORE": 4.0, "SRML_STAR_RATING": 3.0, "HOTEL_NAME": "Hilton Palm Springs"}, "1009322": {"HT_HOTEL_ID": 1009322, "HT_LONGITUDE": -98.195103, "HT_LATITUDE": 19.044806, "HT_TRIP_ADVISOR_SCORE": 3.5, "SRML_STAR_RATING": 3.0, "HOTEL_NAME": "Hotel Imperial"}, "1009292": {"HT_HOTEL_ID": 1009292, "HT_LONGITUDE": 98.319173, "HT_LATITUDE": 7.791994, "HT_TRIP_ADVISOR_SCORE": 4.5, "SRML_STAR_RATING": 4.0, "HOTEL_NAME": "Two Villas Holiday Phuket: Onyx Style Nai Harn Beach"}, "1009302": {"HT_HOTEL_ID": 1009302, "HT_LONGITUDE": -106.58445, "HT_LATITUDE": 35.166908, "HT_TRIP_ADVISOR_SCORE": 3.5, "SRML_STAR_RATING": 2.0, "HOTEL_NAME": "Howard Johnson Express Inn Albuquerque"}, "1009336": {"HT_HOTEL_ID": 1009336, "HT_LONGITUDE": -46.636181, "HT_LATITUDE": -23.540853, "HT_TRIP_ADVISOR_SCORE": 4.0, "SRML_STAR_RATING": 3.0, "HOTEL_NAME": "Center Hotel"}, "1009315": {"HT_HOTEL_ID": 1009315, "HT_LONGITUDE": -86.962863, "HT_LATITUDE": 20.756257, "HT_TRIP_ADVISOR_SCORE": 5.0, "SRML_STAR_RATING": 5.0, "HOTEL_NAME": "Iberostar Grand Hotel Paraiso"}, "1009426": {"HT_HOTEL_ID": 1009426, "HT_LONGITUDE": 5.106798, "HT_LATITUDE": 52.058038, "HT_TRIP_ADVISOR_SCORE": 3.5, "SRML_STAR_RATING": 3.0, "HOTEL_NAME": "Bastion Hotel Utrecht"}, "1009362": {"HT_HOTEL_ID": 1009362, "HT_LONGITUDE": -72.980563, "HT_LATITUDE": -41.313157, "HT_TRIP_ADVISOR_SCORE": 4.5, "SRML_STAR_RATING": 4.0, "HOTEL_NAME": "Hotel Caba\u00f1a Del Lago"}, "1009367": {"HT_HOTEL_ID": 1009367, "HT_LONGITUDE": 105.847842, "HT_LATITUDE": 21.033848, "HT_TRIP_ADVISOR_SCORE": 4.0, "SRML_STAR_RATING": 3.0, "HOTEL_NAME": "Quoc Hoa Hanoi Hotel"}, "1009530": {"HT_HOTEL_ID": 1009530, "HT_LONGITUDE": 23.721403, "HT_LATITUDE": 37.990547, "HT_TRIP_ADVISOR_SCORE": 3.0, "SRML_STAR_RATING": 3.0, "HOTEL_NAME": "Oscar Inn"}, "1009497": {"HT_HOTEL_ID": 1009497, "HT_LONGITUDE": -73.471565, "HT_LATITUDE": 45.445901, "HT_TRIP_ADVISOR_SCORE": 3.5, "SRML_STAR_RATING": 2.0, "HOTEL_NAME": "Econo Lodge"}, "1009505": {"HT_HOTEL_ID": 1009505, "HT_LONGITUDE": -73.585208, "HT_LATITUDE": 45.491757, "HT_TRIP_ADVISOR_SCORE": 4.0, "SRML_STAR_RATING": 3.0, "HOTEL_NAME": "Residence Inn Montreal Westmount"}, "1009509": {"HT_HOTEL_ID": 1009509, "HT_LONGITUDE": 19.023579, "HT_LATITUDE": 50.262053, "HT_TRIP_ADVISOR_SCORE": 3.5, "SRML_STAR_RATING": 2.0, "HOTEL_NAME": "Hotel Katowice"}, "1009551": {"HT_HOTEL_ID": 1009551, "HT_LONGITUDE": 9.075895, "HT_LATITUDE": 45.841015, "HT_TRIP_ADVISOR_SCORE": 4.0, "SRML_STAR_RATING": 3.0, "HOTEL_NAME": "Hotel Centrale"}, "1009536": {"HT_HOTEL_ID": 1009536, "HT_LONGITUDE": -74.031705, "HT_LATITUDE": 4.697461, "HT_TRIP_ADVISOR_SCORE": 4.0, "SRML_STAR_RATING": 4.0, "HOTEL_NAME": "Tryp Bogota Usaquen"}, "1009578": {"HT_HOTEL_ID": 1009578, "HT_LONGITUDE": -112.638114, "HT_LATITUDE": 45.22652, "HT_TRIP_ADVISOR_SCORE": 4.0, "SRML_STAR_RATING": 2.0, "HOTEL_NAME": "Comfort Inn"}, "1009608": {"HT_HOTEL_ID": 1009608, "HT_LONGITUDE": -39.025386, "HT_LATITUDE": -14.835559, "HT_TRIP_ADVISOR_SCORE": 4.0, "SRML_STAR_RATING": 2.0, "HOTEL_NAME": "Hotel La Dolce Vita"}, "1009611": {"HT_HOTEL_ID": 1009611, "HT_LONGITUDE": -78.539288, "HT_LATITUDE": 35.984072, "HT_TRIP_ADVISOR_SCORE": 4.0, "SRML_STAR_RATING": 2.0, "HOTEL_NAME": "Sleep Inn"}, "1009636": {"HT_HOTEL_ID": 1009636, "HT_LONGITUDE": -78.578357, "HT_LATITUDE": 35.796282, "HT_TRIP_ADVISOR_SCORE": 4.0, "SRML_STAR_RATING": 3.0, "HOTEL_NAME": "Holiday Inn Express & Suites Raleigh Ne - Medical Center Area"}, "1009672": {"HT_HOTEL_ID": 1009672, "HT_LONGITUDE": -6.197732, "HT_LATITUDE": 33.744115, "HT_TRIP_ADVISOR_SCORE": 3.5, "SRML_STAR_RATING": 4.0, "HOTEL_NAME": "Hotel Dar Eddaya"}, "1009651": {"HT_HOTEL_ID": 1009651, "HT_LONGITUDE": -51.192062, "HT_LATITUDE": -29.997313, "HT_TRIP_ADVISOR_SCORE": 3.0, "SRML_STAR_RATING": 3.0, "HOTEL_NAME": "Hotel Expressinho"}, "1009655": {"HT_HOTEL_ID": 1009655, "HT_LONGITUDE": 28.13928, "HT_LATITUDE": 36.204633, "HT_TRIP_ADVISOR_SCORE": 4.0, "SRML_STAR_RATING": 4.0, "HOTEL_NAME": "Porto Angeli Beach Resort Hotel"}, "1009815": {"HT_HOTEL_ID": 1009815, "HT_LONGITUDE": -35.175011, "HT_LATITUDE": -5.879163, "HT_TRIP_ADVISOR_SCORE": 3.5, "SRML_STAR_RATING": 3.0, "HOTEL_NAME": "Bello Mare Hotel"}, "1009767": {"HT_HOTEL_ID": 1009767, "HT_LONGITUDE": -48.451542, "HT_LATITUDE": -27.427667, "HT_TRIP_ADVISOR_SCORE": 4.0, "SRML_STAR_RATING": 3.0, "HOTEL_NAME": "Al Mare Palace Hotel"}, "1009776": {"HT_HOTEL_ID": 1009776, "HT_LONGITUDE": -49.280076, "HT_LATITUDE": -25.441493, "HT_TRIP_ADVISOR_SCORE": 4.0, "SRML_STAR_RATING": 4.0, "HOTEL_NAME": "Slaviero Executive Curitiba Batel"}, "1009805": {"HT_HOTEL_ID": 1009805, "HT_LONGITUDE": -41.798716, "HT_LATITUDE": -22.405331, "HT_TRIP_ADVISOR_SCORE": 3.5, "SRML_STAR_RATING": 4.0, "HOTEL_NAME": "Hotel Brisa Tropical De Maca\u00e9"}, "1009873": {"HT_HOTEL_ID": 1009873, "HT_LONGITUDE": 14.308246, "HT_LATITUDE": 45.33718, "HT_TRIP_ADVISOR_SCORE": 4.0, "SRML_STAR_RATING": 4.0, "HOTEL_NAME": "Hotel Agava"}, "1009897": {"HT_HOTEL_ID": 1009897, "HT_LONGITUDE": -51.224629, "HT_LATITUDE": -30.032378, "HT_TRIP_ADVISOR_SCORE": 3.0, "SRML_STAR_RATING": 3.0, "HOTEL_NAME": "Hotel Duque Center"}, "1009885": {"HT_HOTEL_ID": 1009885, "HT_LONGITUDE": -109.472334, "HT_LATITUDE": 41.540658, "HT_TRIP_ADVISOR_SCORE": 4.5, "SRML_STAR_RATING": 3.0, "HOTEL_NAME": "Hampton Inn & Suites Green River"}, "1009886": {"HT_HOTEL_ID": 1009886, "HT_LONGITUDE": -109.245144, "HT_LATITUDE": 41.573775, "HT_TRIP_ADVISOR_SCORE": 4.5, "SRML_STAR_RATING": 3.0, "HOTEL_NAME": "Hampton Inn Rock Springs"}, "1009921": {"HT_HOTEL_ID": 1009921, "HT_LONGITUDE": -51.170893, "HT_LATITUDE": -23.313809, "HT_TRIP_ADVISOR_SCORE": 4.0, "SRML_STAR_RATING": 4.0, "HOTEL_NAME": "Blue Tree Premium Londrina"}, "1009869": {"HT_HOTEL_ID": 1009869, "HT_LONGITUDE": -74.071796, "HT_LATITUDE": 4.609711, "HT_TRIP_ADVISOR_SCORE": 3.0, "SRML_STAR_RATING": 2.0, "HOTEL_NAME": "Hotel El Duque"}, "1010079": {"HT_HOTEL_ID": 1010079, "HT_LONGITUDE": -40.291112, "HT_LATITUDE": -20.296537, "HT_TRIP_ADVISOR_SCORE": 4.0, "SRML_STAR_RATING": 4.0, "HOTEL_NAME": "Comfort Suites Vit\u00f3ria"}, "1009944": {"HT_HOTEL_ID": 1009944, "HT_LONGITUDE": 12.579969, "HT_LATITUDE": 44.067969, "HT_TRIP_ADVISOR_SCORE": 4.0, "SRML_STAR_RATING": 4.0, "HOTEL_NAME": "Hotel Trieste"}, "1009947": {"HT_HOTEL_ID": 1009947, "HT_LONGITUDE": 12.65209, "HT_LATITUDE": 44.008373, "HT_TRIP_ADVISOR_SCORE": 3.5, "SRML_STAR_RATING": 4.0, "HOTEL_NAME": "Hotel Vittoria"}, "1009951": {"HT_HOTEL_ID": 1009951, "HT_LONGITUDE": 12.762924, "HT_LATITUDE": 43.965703, "HT_TRIP_ADVISOR_SCORE": 4.5, "SRML_STAR_RATING": 4.0, "HOTEL_NAME": "Hotel Sans Souci"}, "1009955": {"HT_HOTEL_ID": 1009955, "HT_LONGITUDE": -46.678449, "HT_LATITUDE": -23.581137, "HT_TRIP_ADVISOR_SCORE": 4.0, "SRML_STAR_RATING": 5.0, "HOTEL_NAME": "Meli\u00e1 Jardim Europa"}, "1009964": {"HT_HOTEL_ID": 1009964, "HT_LONGITUDE": -49.287489, "HT_LATITUDE": -25.440765, "HT_TRIP_ADVISOR_SCORE": 4.5, "SRML_STAR_RATING": 4.0, "HOTEL_NAME": "Quality Hotel Curitiba"}, "1010183": {"HT_HOTEL_ID": 1010183, "HT_LONGITUDE": 2.531156, "HT_LATITUDE": 39.509086, "HT_TRIP_ADVISOR_SCORE": 4.0, "SRML_STAR_RATING": 4.0, "HOTEL_NAME": "Hotel Bh Mallorca"}, "1010185": {"HT_HOTEL_ID": 1010185, "HT_LONGITUDE": 34.436099, "HT_LATITUDE": 28.030038, "HT_TRIP_ADVISOR_SCORE": 4.5, "SRML_STAR_RATING": 5.0, "HOTEL_NAME": "Rixos Sharm El Sheikh"}, "1010102": {"HT_HOTEL_ID": 1010102, "HT_LONGITUDE": 12.486518, "HT_LATITUDE": 41.902804, "HT_TRIP_ADVISOR_SCORE": 4.0, "SRML_STAR_RATING": 4.0, "HOTEL_NAME": "Hotel Memphis"}, "1010141": {"HT_HOTEL_ID": 1010141, "HT_LONGITUDE": 12.480599, "HT_LATITUDE": 41.904711, "HT_TRIP_ADVISOR_SCORE": 4.0, "SRML_STAR_RATING": 5.0, "HOTEL_NAME": "Hotel D'inghilterra - Starhotels Collezione"}, "1010142": {"HT_HOTEL_ID": 1010142, "HT_LONGITUDE": 12.495647, "HT_LATITUDE": 41.998666, "HT_TRIP_ADVISOR_SCORE": 2.5, "SRML_STAR_RATING": 3.0, "HOTEL_NAME": "Hotel Flaminius"}, "1010166": {"HT_HOTEL_ID": 1010166, "HT_LONGITUDE": 12.413157, "HT_LATITUDE": 41.892249, "HT_TRIP_ADVISOR_SCORE": 4.0, "SRML_STAR_RATING": 3.0, "HOTEL_NAME": "Raganelli Hotel"}, "1010168": {"HT_HOTEL_ID": 1010168, "HT_LONGITUDE": 12.503259, "HT_LATITUDE": 41.897494, "HT_TRIP_ADVISOR_SCORE": 3.5, "SRML_STAR_RATING": 3.0, "HOTEL_NAME": "Hotel Mariano"}, "1010177": {"HT_HOTEL_ID": 1010177, "HT_LONGITUDE": 75.796656, "HT_LATITUDE": 26.923189, "HT_TRIP_ADVISOR_SCORE": 4.5, "SRML_STAR_RATING": 2.0, "HOTEL_NAME": "Golden Hotel"}, "1010232": {"HT_HOTEL_ID": 1010232, "HT_LONGITUDE": -121.433608, "HT_LATITUDE": 38.606851, "HT_TRIP_ADVISOR_SCORE": 4.0, "SRML_STAR_RATING": 3.0, "HOTEL_NAME": "Hilton Sacramento Arden West"}, "1010195": {"HT_HOTEL_ID": 1010195, "HT_LONGITUDE": -98.429094, "HT_LATITUDE": 29.351025, "HT_TRIP_ADVISOR_SCORE": 3.5, "SRML_STAR_RATING": 2.0, "HOTEL_NAME": "La Quinta Inn San Antonio Brooks City Base"}, "1010196": {"HT_HOTEL_ID": 1010196, "HT_LONGITUDE": -98.556144, "HT_LATITUDE": 29.516468, "HT_TRIP_ADVISOR_SCORE": 4.5, "SRML_STAR_RATING": 3.0, "HOTEL_NAME": "La Quinta Inn & Suites San Antonio Medical Center"}, "1010288": {"HT_HOTEL_ID": 1010288, "HT_LONGITUDE": -117.227285, "HT_LATITUDE": 32.71385, "HT_TRIP_ADVISOR_SCORE": 4.5, "SRML_STAR_RATING": 3.0, "HOTEL_NAME": "Best Western Plus Island Palms Hotel & Marina"}, "1010263": {"HT_HOTEL_ID": 1010263, "HT_LONGITUDE": -117.222476, "HT_LATITUDE": 32.725985, "HT_TRIP_ADVISOR_SCORE": 4.0, "SRML_STAR_RATING": 4.0, "HOTEL_NAME": "Holiday Inn San Diego - Bayside"}, "1010326": {"HT_HOTEL_ID": 1010326, "HT_LONGITUDE": -122.00153, "HT_LATITUDE": 37.352841, "HT_TRIP_ADVISOR_SCORE": 4.5, "SRML_STAR_RATING": 2.0, "HOTEL_NAME": "Best Western Inn Santa Clara"}, "1010399": {"HT_HOTEL_ID": 1010399, "HT_LONGITUDE": -46.678171, "HT_LATITUDE": -23.582811, "HT_TRIP_ADVISOR_SCORE": 4.0, "SRML_STAR_RATING": 4.0, "HOTEL_NAME": "Tryp Jesu\u00edno Arruda"}, "1010400": {"HT_HOTEL_ID": 1010400, "HT_LONGITUDE": -49.266546, "HT_LATITUDE": -16.688056, "HT_TRIP_ADVISOR_SCORE": 4.0, "SRML_STAR_RATING": 4.0, "HOTEL_NAME": "Vivence Su\u00edtes Hotel"}, "1010382": {"HT_HOTEL_ID": 1010382, "HT_LONGITUDE": 25.422379, "HT_LATITUDE": 36.43704, "HT_TRIP_ADVISOR_SCORE": 5.0, "SRML_STAR_RATING": 5.0, "HOTEL_NAME": "Avaton Resort And Spa"}, "1010369": {"HT_HOTEL_ID": 1010369, "HT_LONGITUDE": 129.03462, "HT_LATITUDE": 35.099426, "HT_TRIP_ADVISOR_SCORE": 3.5, "SRML_STAR_RATING": 2.0, "HOTEL_NAME": "Ekonomy Hotel Nampo"}, "1010389": {"HT_HOTEL_ID": 1010389, "HT_LONGITUDE": -49.324741, "HT_LATITUDE": -25.406668, "HT_TRIP_ADVISOR_SCORE": 4.0, "SRML_STAR_RATING": 3.0, "HOTEL_NAME": "Hotel Tulip Inn Santa Felicidade"}, "1010468": {"HT_HOTEL_ID": 1010468, "HT_LONGITUDE": -41.875873, "HT_LATITUDE": -22.743802, "HT_TRIP_ADVISOR_SCORE": 4.5, "SRML_STAR_RATING": 3.0, "HOTEL_NAME": "Pousada Experience Jo\u00e3o Fernandes"}, "1010449": {"HT_HOTEL_ID": 1010449, "HT_LONGITUDE": 25.470848, "HT_LATITUDE": 36.352237, "HT_TRIP_ADVISOR_SCORE": 4.0, "SRML_STAR_RATING": 2.0, "HOTEL_NAME": "Rena"}, "1010455": {"HT_HOTEL_ID": 1010455, "HT_LONGITUDE": 25.483903, "HT_LATITUDE": 36.377257, "HT_TRIP_ADVISOR_SCORE": 4.5, "SRML_STAR_RATING": 3.0, "HOTEL_NAME": "Acqua Vatos Hotel"}, "1010482": {"HT_HOTEL_ID": 1010482, "HT_LONGITUDE": -46.53482, "HT_LATITUDE": -23.647166, "HT_TRIP_ADVISOR_SCORE": 4.0, "SRML_STAR_RATING": 3.0, "HOTEL_NAME": "Mercure Santo Andre Hotel"}, "1010462": {"HT_HOTEL_ID": 1010462, "HT_LONGITUDE": 25.431007, "HT_LATITUDE": 36.415466, "HT_TRIP_ADVISOR_SCORE": 4.5, "SRML_STAR_RATING": 4.0, "HOTEL_NAME": "Hotel Tzekos Villas"}, "1010563": {"HT_HOTEL_ID": 1010563, "HT_LONGITUDE": 11.335594, "HT_LATITUDE": 43.317091, "HT_TRIP_ADVISOR_SCORE": 3.5, "SRML_STAR_RATING": 1.0, "HOTEL_NAME": "Locanda Di San Martino"}, "1010526": {"HT_HOTEL_ID": 1010526, "HT_LONGITUDE": -45.415166, "HT_LATITUDE": -23.628018, "HT_TRIP_ADVISOR_SCORE": 3.5, "SRML_STAR_RATING": 3.0, "HOTEL_NAME": "Hotel Litoral Norte"}, "1010554": {"HT_HOTEL_ID": 1010554, "HT_LONGITUDE": -56.090171, "HT_LATITUDE": -15.602129, "HT_TRIP_ADVISOR_SCORE": 4.0, "SRML_STAR_RATING": 3.0, "HOTEL_NAME": "Hotel Roari"}, "1010605": {"HT_HOTEL_ID": 1010605, "HT_LONGITUDE": -50.15797, "HT_LATITUDE": -25.096454, "HT_TRIP_ADVISOR_SCORE": 4.5, "SRML_STAR_RATING": 3.0, "HOTEL_NAME": "Hotel Planalto Ponta Grossa"}, "1010732": {"HT_HOTEL_ID": 1010732, "HT_LONGITUDE": -122.333388, "HT_LATITUDE": 47.607091, "HT_TRIP_ADVISOR_SCORE": 4.0, "SRML_STAR_RATING": 3.0, "HOTEL_NAME": "Executive Hotel Pacific"}, "1010683": {"HT_HOTEL_ID": 1010683, "HT_LONGITUDE": -46.635273, "HT_LATITUDE": -23.594959, "HT_TRIP_ADVISOR_SCORE": 3.5, "SRML_STAR_RATING": 2.0, "HOTEL_NAME": "Residencial Pantanal"}, "1010672": {"HT_HOTEL_ID": 1010672, "HT_LONGITUDE": -54.589595, "HT_LATITUDE": -25.531, "HT_TRIP_ADVISOR_SCORE": 3.5, "SRML_STAR_RATING": 3.0, "HOTEL_NAME": "Manac\u00e1 Hotel"}, "1010708": {"HT_HOTEL_ID": 1010708, "HT_LONGITUDE": -48.625108, "HT_LATITUDE": -17.735963, "HT_TRIP_ADVISOR_SCORE": 4.0, "SRML_STAR_RATING": 3.0, "HOTEL_NAME": "Hotel Morada Das \u00c1guas"}, "1010693": {"HT_HOTEL_ID": 1010693, "HT_LONGITUDE": -34.824103, "HT_LATITUDE": -7.121082, "HT_TRIP_ADVISOR_SCORE": 3.5, "SRML_STAR_RATING": 3.0, "HOTEL_NAME": "Xenius Hotel"}, "1010806": {"HT_HOTEL_ID": 1010806, "HT_LONGITUDE": -113.582249, "HT_LATITUDE": 37.078338, "HT_TRIP_ADVISOR_SCORE": 4.0, "SRML_STAR_RATING": 3.0, "HOTEL_NAME": "Hilton Garden Inn St. George"}, "1010749": {"HT_HOTEL_ID": 1010749, "HT_LONGITUDE": -8.613134, "HT_LATITUDE": 41.14047, "HT_TRIP_ADVISOR_SCORE": 4.5, "SRML_STAR_RATING": 4.0, "HOTEL_NAME": "Pestana Vintage Porto"}, "1010772": {"HT_HOTEL_ID": 1010772, "HT_LONGITUDE": -9.136669, "HT_LATITUDE": 38.710608, "HT_TRIP_ADVISOR_SCORE": 4.5, "SRML_STAR_RATING": 4.0, "HOTEL_NAME": "Lisboa Prata Boutique Hotel"}, "1010773": {"HT_HOTEL_ID": 1010773, "HT_LONGITUDE": -2.140994, "HT_LATITUDE": 52.888162, "HT_TRIP_ADVISOR_SCORE": 3.5, "SRML_STAR_RATING": 3.0, "HOTEL_NAME": "Stone House Hotel"}, "1010752": {"HT_HOTEL_ID": 1010752, "HT_LONGITUDE": 14.873245, "HT_LATITUDE": 40.593865, "HT_TRIP_ADVISOR_SCORE": 4.0, "SRML_STAR_RATING": 4.0, "HOTEL_NAME": "La Isla Resort"}, "1010741": {"HT_HOTEL_ID": 1010741, "HT_LONGITUDE": -4.122013, "HT_LATITUDE": 40.948636, "HT_TRIP_ADVISOR_SCORE": 4.5, "SRML_STAR_RATING": 4.0, "HOTEL_NAME": "Hotel Real Segovia"}, "1010786": {"HT_HOTEL_ID": 1010786, "HT_LONGITUDE": -74.218943, "HT_LATITUDE": 11.092194, "HT_TRIP_ADVISOR_SCORE": 4.0, "SRML_STAR_RATING": 3.0, "HOTEL_NAME": "Decameron Gale\u00f3n"}, "1010803": {"HT_HOTEL_ID": 1010803, "HT_LONGITUDE": -113.584286, "HT_LATITUDE": 37.088998, "HT_TRIP_ADVISOR_SCORE": 4.5, "SRML_STAR_RATING": 3.0, "HOTEL_NAME": "Best Western Plus Abbey Inn"}, "1010813": {"HT_HOTEL_ID": 1010813, "HT_LONGITUDE": -86.248152, "HT_LATITUDE": 42.403021, "HT_TRIP_ADVISOR_SCORE": 4.0, "SRML_STAR_RATING": 3.0, "HOTEL_NAME": "Hampton Inn South Haven"}, "1010875": {"HT_HOTEL_ID": 1010875, "HT_LONGITUDE": -43.397086, "HT_LATITUDE": -22.965786, "HT_TRIP_ADVISOR_SCORE": 4.0, "SRML_STAR_RATING": 4.0, "HOTEL_NAME": "Quality Rio Olympic Park"}, "1010821": {"HT_HOTEL_ID": 1010821, "HT_LONGITUDE": -47.451581, "HT_LATITUDE": -19.878929, "HT_TRIP_ADVISOR_SCORE": 4.0, "SRML_STAR_RATING": 3.0, "HOTEL_NAME": "Hotel Samba Viva Sacramento"}, "1010863": {"HT_HOTEL_ID": 1010863, "HT_LONGITUDE": -93.715222, "HT_LATITUDE": 32.427115, "HT_TRIP_ADVISOR_SCORE": 4.5, "SRML_STAR_RATING": 3.0, "HOTEL_NAME": "Hampton Inn & Suites Shreveport/South"}, "1010926": {"HT_HOTEL_ID": 1010926, "HT_LONGITUDE": 15.44894, "HT_LATITUDE": 38.244032, "HT_TRIP_ADVISOR_SCORE": 4.5, "SRML_STAR_RATING": 4.0, "HOTEL_NAME": "Viola Palace Hotel"}, "1010904": {"HT_HOTEL_ID": 1010904, "HT_LONGITUDE": 15.636213, "HT_LATITUDE": 38.264435, "HT_TRIP_ADVISOR_SCORE": 3.5, "SRML_STAR_RATING": 4.0, "HOTEL_NAME": "Capo Peloro Resort"}, "1010908": {"HT_HOTEL_ID": 1010908, "HT_LONGITUDE": 13.368575, "HT_LATITUDE": 38.111771, "HT_TRIP_ADVISOR_SCORE": 4.0, "SRML_STAR_RATING": 3.0, "HOTEL_NAME": "Bed And Breakfast Art Lincoln"}, "1010913": {"HT_HOTEL_ID": 1010913, "HT_LONGITUDE": 15.087108, "HT_LATITUDE": 37.53074, "HT_TRIP_ADVISOR_SCORE": 3.5, "SRML_STAR_RATING": 2.0, "HOTEL_NAME": "Hotel Villa Mater"}, "1010939": {"HT_HOTEL_ID": 1010939, "HT_LONGITUDE": -0.129306, "HT_LATITUDE": 51.517332, "HT_TRIP_ADVISOR_SCORE": 4.5, "SRML_STAR_RATING": 4.0, "HOTEL_NAME": "The Bloomsbury"}, "1011016": {"HT_HOTEL_ID": 1011016, "HT_LONGITUDE": 31.320943, "HT_LATITUDE": 36.813439, "HT_TRIP_ADVISOR_SCORE": 4.5, "SRML_STAR_RATING": 5.0, "HOTEL_NAME": "Alba Royal Hotel"}, "1011020": {"HT_HOTEL_ID": 1011020, "HT_LONGITUDE": 18.314265, "HT_LATITUDE": 43.841035, "HT_TRIP_ADVISOR_SCORE": 3.5, "SRML_STAR_RATING": 3.0, "HOTEL_NAME": "Hotel Ahar"}, "1010997": {"HT_HOTEL_ID": 1010997, "HT_LONGITUDE": -96.422129, "HT_LATITUDE": 42.489639, "HT_TRIP_ADVISOR_SCORE": 4.5, "SRML_STAR_RATING": 3.0, "HOTEL_NAME": "Hilton Garden Inn Sioux City Riverfront"}, "1011022": {"HT_HOTEL_ID": 1011022, "HT_LONGITUDE": -84.151063, "HT_LATITUDE": 9.973509, "HT_TRIP_ADVISOR_SCORE": 4.5, "SRML_STAR_RATING": 3.0, "HOTEL_NAME": "Adventure Inn Hotel"}, "1011026": {"HT_HOTEL_ID": 1011026, "HT_LONGITUDE": -84.241297, "HT_LATITUDE": 9.994209, "HT_TRIP_ADVISOR_SCORE": 4.0, "SRML_STAR_RATING": 3.0, "HOTEL_NAME": "Hotel Aeropuerto - Airport Hotel Costa Rica"}, "1011100": {"HT_HOTEL_ID": 1011100, "HT_LONGITUDE": -4.534141, "HT_LATITUDE": 36.588748, "HT_TRIP_ADVISOR_SCORE": 4.5, "SRML_STAR_RATING": 3.0, "HOTEL_NAME": "R\u00e9sidence Pierre Et Vacances Benalm\u00e1dena Principe"}, "1011101": {"HT_HOTEL_ID": 1011101, "HT_LONGITUDE": 24.780251, "HT_LATITUDE": 35.410061, "HT_TRIP_ADVISOR_SCORE": 4.0, "SRML_STAR_RATING": 2.0, "HOTEL_NAME": "Elpis Studios & Apartments"}, "1011126": {"HT_HOTEL_ID": 1011126, "HT_LONGITUDE": 31.354678, "HT_LATITUDE": 36.801929, "HT_TRIP_ADVISOR_SCORE": 3.5, "SRML_STAR_RATING": 5.0, "HOTEL_NAME": "Cesars Resorts Side"}, "1011127": {"HT_HOTEL_ID": 1011127, "HT_LONGITUDE": -3.592084, "HT_LATITUDE": 37.179919, "HT_TRIP_ADVISOR_SCORE": 4.5, "SRML_STAR_RATING": 2.0, "HOTEL_NAME": "Apartamentos Turisticos Alhambra"}, "1011114": {"HT_HOTEL_ID": 1011114, "HT_LONGITUDE": -4.431819, "HT_LATITUDE": 37.235707, "HT_TRIP_ADVISOR_SCORE": 3.5, "SRML_STAR_RATING": 3.0, "HOTEL_NAME": "Hotel Rural Mi Refugio"}, "1011116": {"HT_HOTEL_ID": 1011116, "HT_LONGITUDE": -111.899052, "HT_LATITUDE": 40.759952, "HT_TRIP_ADVISOR_SCORE": 4.5, "SRML_STAR_RATING": 3.0, "HOTEL_NAME": "Hampton Inn Salt Lake City-Downtown"}, "1011270": {"HT_HOTEL_ID": 1011270, "HT_LONGITUDE": -68.308954, "HT_LATITUDE": 12.201448, "HT_TRIP_ADVISOR_SCORE": 4.0, "SRML_STAR_RATING": 3.0, "HOTEL_NAME": "Caribbean Club Bonaire"}, "1011235": {"HT_HOTEL_ID": 1011235, "HT_LONGITUDE": 14.491423, "HT_LATITUDE": 35.924102, "HT_TRIP_ADVISOR_SCORE": 3.5, "SRML_STAR_RATING": 4.0, "HOTEL_NAME": "Golden Tulip"}, "1011257": {"HT_HOTEL_ID": 1011257, "HT_LONGITUDE": 34.306193, "HT_LATITUDE": 27.873764, "HT_TRIP_ADVISOR_SCORE": 3.5, "SRML_STAR_RATING": 4.0, "HOTEL_NAME": "Sharm Inn Amarein"}, "1011140": {"HT_HOTEL_ID": 1011140, "HT_LONGITUDE": -6.553403, "HT_LATITUDE": 40.592173, "HT_TRIP_ADVISOR_SCORE": 3.5, "SRML_STAR_RATING": 4.0, "HOTEL_NAME": "Conde Rodrigo Ii"}, "1011181": {"HT_HOTEL_ID": 1011181, "HT_LONGITUDE": 16.439407, "HT_LATITUDE": 43.172278, "HT_TRIP_ADVISOR_SCORE": 4.0, "SRML_STAR_RATING": 4.0, "HOTEL_NAME": "Adriana, Hvar Spa Hotel"}, "1011165": {"HT_HOTEL_ID": 1011165, "HT_LONGITUDE": 13.043979, "HT_LATITUDE": 54.320055, "HT_TRIP_ADVISOR_SCORE": 4.0, "SRML_STAR_RATING": 4.0, "HOTEL_NAME": "Wyndham Stralsund Hansedom"}, "1011265": {"HT_HOTEL_ID": 1011265, "HT_LONGITUDE": 2.175275, "HT_LATITUDE": 41.381012, "HT_TRIP_ADVISOR_SCORE": 4.0, "SRML_STAR_RATING": 2.0, "HOTEL_NAME": "Hotel Calif\u00f2rnia"}, "1011573": {"HT_HOTEL_ID": 1011573, "HT_LONGITUDE": -8.018818, "HT_LATITUDE": 31.638165, "HT_TRIP_ADVISOR_SCORE": 2.5, "SRML_STAR_RATING": 4.0, "HOTEL_NAME": "Hotel Dar Naciria Marrakech"}, "1011430": {"HT_HOTEL_ID": 1011430, "HT_LONGITUDE": -5.980064, "HT_LATITUDE": 37.353846, "HT_TRIP_ADVISOR_SCORE": 4.0, "SRML_STAR_RATING": 4.0, "HOTEL_NAME": "Hotel Silken Al-Andalus Palace"}, "1011578": {"HT_HOTEL_ID": 1011578, "HT_LONGITUDE": -105.231657, "HT_LATITUDE": 20.621117, "HT_TRIP_ADVISOR_SCORE": 4.5, "SRML_STAR_RATING": 4.0, "HOTEL_NAME": "Villa Premiere Boutique Hotel & Romantic Getaway"}, "1011579": {"HT_HOTEL_ID": 1011579, "HT_LONGITUDE": -100.740453, "HT_LATITUDE": 20.914059, "HT_TRIP_ADVISOR_SCORE": 4.5, "SRML_STAR_RATING": 4.0, "HOTEL_NAME": "Casa Mia Suites"}, "1011634": {"HT_HOTEL_ID": 1011634, "HT_LONGITUDE": -3.311266, "HT_LATITUDE": 55.926595, "HT_TRIP_ADVISOR_SCORE": 4.0, "SRML_STAR_RATING": 4.0, "HOTEL_NAME": "Novotel Edinburgh Park Hotel"}, "1011387": {"HT_HOTEL_ID": 1011387, "HT_LONGITUDE": 100.557496, "HT_LATITUDE": 13.738556, "HT_TRIP_ADVISOR_SCORE": 4.0, "SRML_STAR_RATING": 3.0, "HOTEL_NAME": "Paradiso Boutique Suites"}, "1011505": {"HT_HOTEL_ID": 1011505, "HT_LONGITUDE": -61.88386, "HT_LATITUDE": 17.05991, "HT_TRIP_ADVISOR_SCORE": 4.0, "SRML_STAR_RATING": 4.0, "HOTEL_NAME": "Sugar Ridge"}, "1011582": {"HT_HOTEL_ID": 1011582, "HT_LONGITUDE": 120.606716, "HT_LATITUDE": 31.315101, "HT_TRIP_ADVISOR_SCORE": 4.0, "SRML_STAR_RATING": 2.0, "HOTEL_NAME": "Home Inn Changmen Shantang Street"}, "1011468": {"HT_HOTEL_ID": 1011468, "HT_LONGITUDE": -5.989447, "HT_LATITUDE": 37.38553, "HT_TRIP_ADVISOR_SCORE": 4.0, "SRML_STAR_RATING": 2.0, "HOTEL_NAME": "Hotel Murillo Centro Sevilla"}, "1011559": {"HT_HOTEL_ID": 1011559, "HT_LONGITUDE": 127.028538, "HT_LATITUDE": 37.266834, "HT_TRIP_ADVISOR_SCORE": 4.0, "SRML_STAR_RATING": 4.0, "HOTEL_NAME": "Suwon Silkroad Hotel"}, "1011509": {"HT_HOTEL_ID": 1011509, "HT_LONGITUDE": -1.741563, "HT_LATITUDE": 51.545681, "HT_TRIP_ADVISOR_SCORE": 3.5, "SRML_STAR_RATING": 4.0, "HOTEL_NAME": "Holiday Inn Swindon"}, "1011280": {"HT_HOTEL_ID": 1011280, "HT_LONGITUDE": 118.204241, "HT_LATITUDE": 5.49636, "HT_TRIP_ADVISOR_SCORE": 4.5, "SRML_STAR_RATING": 3.0, "HOTEL_NAME": "Borneo Natural Sukau Bilit Resort"}, "1011328": {"HT_HOTEL_ID": 1011328, "HT_LONGITUDE": -3.21011, "HT_LATITUDE": 56.134521, "HT_TRIP_ADVISOR_SCORE": 4.0, "SRML_STAR_RATING": 3.0, "HOTEL_NAME": "Dean Park Hotel"},